Keyword,Name,Rating,Review_count,Price_range,Category,Address,Latitude,Longitude,Current_status,Next_status,Website,Scraped_at,Telephone,Tags,Detail_URL
Auto body repair shop bronx ny,J&J Prestige Auto Collision And Repair Inc,3.8,78,,Auto body shop,2321 Bathgate Ave,40.8553859,-73.891345,Open,Closes 7 PM,https://www.jjprestigeautocollision.com/,2024-03-04 14:51:25,(646) 938-8068,,https://www.google.com/maps/place/J%26J+Prestige+Auto+Collision+And+Repair+Inc/data=!4m7!3m6!1s0x89c2f47dd6ffb77f:0x2b0b75516d17d0d8!8m2!3d40.8553859!4d-73.891345!16s%2Fg%2F11hctjxp5r!19sChIJf7f_1n30wokR2NAXbVF1Cys?authuser=0&hl=en&rclk=1
Auto body repair shop bronx ny,S&T Auto Body,4.6,491,,Auto body shop,4632 Third Ave,40.8566899,-73.8907953,Open,Closes 5 PM,http://stautobody.com/,2024-03-04 14:51:26,(718) 220-2201," 
""This is by far the best repair shop in the entire NY area.""
 
BOOK ONLINE",https://www.google.com/maps/place/S%26T+Auto+Body/data=!4m7!3m6!1s0x89c2f47e6ed8cd73:0x1f0d31d2bf99a31b!8m2!3d40.8566899!4d-73.8907953!16s%2Fg%2F1tlc8_kh!19sChIJc83Ybn70wokRG6OZv9IxDR8?authuser=0&hl=en&rclk=1
Auto body repair shop bronx ny,F&C BODY SHOP AND AUTO REPAIR,4.6,29,,Auto body shop,1271 Jerome Avenue Side Entrance,40.8378139,-73.920625,Open,Closes 5 PM,https://f-c-auto-body-repair.business.site/,2024-03-04 14:51:27,(718) 992-4001,,https://www.google.com/maps/place/F%26C+BODY+SHOP+AND+AUTO+REPAIR/data=!4m7!3m6!1s0x89c2f43bb3cd5347:0xdcc65938e864d032!8m2!3d40.8378139!4d-73.920625!16s%2Fg%2F1wj_v62c!19sChIJR1PNszv0wokRMtBk6DhZxtw?authuser=0&hl=en&rclk=1
Auto body repair shop bronx ny,Quality Auto Painting & Body,4.5,87,,Auto body shop,1941 Jerome Ave,40.851272,-73.90993,Open,Closes 5 PM,,2024-03-04 14:51:28,(718) 583-1540," 
""After a minor accident I took my car here for repairs.""",https://www.google.com/maps/place/Quality+Auto+Painting+%26+Body/data=!4m7!3m6!1s0x89c2f46d049410bb:0x1b4ec37ba64c5ddc!8m2!3d40.851272!4d-73.90993!16s%2Fg%2F1t_tl6t_!19sChIJuxCUBG30wokR3F1MpnvDThs?authuser=0&hl=en&rclk=1
Auto body repair shop bronx ny,Recharge Auto Body Repair,4.5,69,,Auto body shop,1088 Brook Ave,40.8290621,-73.9108421,Open,Closes 5:30 PM,http://www.rechargeauto.com/,2024-03-04 14:51:29,(917) 471-8071," 
""I highly recommend this shop for auto body repairs!!!""",https://www.google.com/maps/place/Recharge+Auto+Body+Repair/data=!4m7!3m6!1s0x89c2f590dfca540f:0x43f2d9638712fe2a!8m2!3d40.8290621!4d-73.9108421!16s%2Fg%2F11f5q84pmq!19sChIJD1TK35D1wokRKv4Sh2PZ8kM?authuser=0&hl=en&rclk=1
Auto body repair shop bronx ny,Triple M Auto Body Inc DBA Grand Prix Auto,5.0,48,,Auto body shop,3050 Boston Rd,40.8702772,-73.856356,Open,Closes 5 PM,,2024-03-04 14:51:31,(718) 231-6500," 
""I have no reserves in recommending this repair shop to anyone.""",https://www.google.com/maps/place/Triple+M+Auto+Body+Inc+DBA+Grand+Prix+Auto/data=!4m7!3m6!1s0x89c2f35d9141eceb:0xc7292b08ed1da913!8m2!3d40.8702772!4d-73.856356!16s%2Fg%2F11nxps1jgj!19sChIJ6-xBkV3zwokRE6kd7QgrKcc?authuser=0&hl=en&rclk=1
Auto body repair shop bronx ny,Park Avenue Auto Body Repair,4.5,91,,Auto body shop,3884 Park Ave,40.8401093,-73.9031913,Open,Closes 7 PM,,2024-03-04 14:51:32,(718) 294-5657,,https://www.google.com/maps/place/Park+Avenue+Auto+Body+Repair/data=!4m7!3m6!1s0x89c2f442fc3a3c8f:0x9ff97a389e22207c!8m2!3d40.8401093!4d-73.9031913!16s%2Fg%2F1ts3m3_m!19sChIJjzw6_EL0wokRfCAinjh6-Z8?authuser=0&hl=en&rclk=1
Auto body repair shop bronx ny,East Collision Inc. Auto Body Shop,4.8,108,,Auto body shop,2266 Tillotson Ave,40.8821706,-73.8272391,Closes soon,4:30 PMOpens 7:30 AM Tue,https://www.eastcollisionnewyork.com/,2024-03-04 14:51:33,(718) 994-4900," 
""An auto collision repair would seem to be a difficult problem.""",https://www.google.com/maps/place/East+Collision+Inc.+Auto+Body+Shop/data=!4m7!3m6!1s0x89c28cdae11acd71:0x9a8b7fa9887bb52a!8m2!3d40.8821706!4d-73.8272391!16s%2Fg%2F1vl5hq6r!19sChIJcc0a4dqMwokRKrV7iKl_i5o?authuser=0&hl=en&rclk=1
Auto body repair shop bronx ny,Dale-Way Auto Body Center,4.4,66,,Auto body shop,3039 Tibbett Ave,40.8805672,-73.9088306,Open,Closes 6 PM,http://www.dale-way.com/,2024-03-04 14:51:34,(718) 601-8100," 
""Repair done through insurance.""
 
BOOK ONLINE",https://www.google.com/maps/place/Dale-Way+Auto+Body+Center/data=!4m7!3m6!1s0x89c2f395ae08a9cb:0x5316285935e3c648!8m2!3d40.8805672!4d-73.9088306!16s%2Fg%2F1ttdzcqd!19sChIJy6kIrpXzwokRSMbjNVkoFlM?authuser=0&hl=en&rclk=1
Auto body repair shop bronx ny,Bruckner Collision,4.5,79,,Auto body shop,511 Bruckner Blvd,40.8103485,-73.9026412,Open,Closes 5 PM,https://brucknercollisionllc.com/,2024-03-04 14:51:36,(718) 292-8553," 
""My 2nd time using this repair shop.""",https://www.google.com/maps/place/Bruckner+Collision/data=!4m7!3m6!1s0x89c2f5badde513ed:0x86948bc363d65e52!8m2!3d40.8103485!4d-73.9026412!16s%2Fg%2F1td4l1cj!19sChIJ7RPl3br1wokRUl7WY8OLlIY?authuser=0&hl=en&rclk=1
Auto body repair shop bronx ny,MStop Auto Body & Repair,4.8,163,,Auto body shop,2970 Paulding Ave,40.8694492,-73.8585737,Open 24 hours,,http://www.mstopauto.com/,2024-03-04 14:51:37,(347) 533-8991," 
""Took my BMW for body paint repairs and they did what they do best.""",https://www.google.com/maps/place/MStop+Auto+Body+%26+Repair/data=!4m7!3m6!1s0x89c2f330c91aa1a5:0x6c608f0771a6f65b!8m2!3d40.8694492!4d-73.8585737!16s%2Fg%2F11hf3lxlt5!19sChIJpaEayTDzwokRW_amcQePYGw?authuser=0&hl=en&rclk=1
Auto body repair shop bronx ny,Frank & Son Autobody,4.7,121,,Auto body shop,1530 Stillwell Ave # B,40.8536746,-73.8424856,Open,Closes 5 PM,http://www.frankandsonautobody.net/,2024-03-04 14:51:38,(718) 822-6726," 
""Truly top Notch service and repairs.""
 
BOOK ONLINE",https://www.google.com/maps/place/Frank+%26+Son+Autobody/data=!4m7!3m6!1s0x89c2f3555638482b:0x9921ede8a128a08e!8m2!3d40.8536746!4d-73.8424856!16s%2Fg%2F1tgff94c!19sChIJK0g4VlXzwokRjqAooejtIZk?authuser=0&hl=en&rclk=1
Auto body repair shop bronx ny,A & A Auto Body Inc.,4.6,60,,Auto body shop,1341 Blondell Ave,40.8418431,-73.8423805,Open,Closes 6 PM,,2024-03-04 14:51:39,(718) 863-9070," 
""I took my 2022 Jeep Compass to have two repairs done and they did ...""",https://www.google.com/maps/place/A+%26+A+Auto+Body+Inc./data=!4m7!3m6!1s0x89c2f4b2cc20c1f1:0x470e319bcea0670e!8m2!3d40.8418431!4d-73.8423805!16s%2Fg%2F1tddt3qk!19sChIJ8cEgzLL0wokRDmegzpsxDkc?authuser=0&hl=en&rclk=1
Auto body repair shop bronx ny,Dom's Auto Body,4.3,39,,Auto body shop,2405 Poplar St,40.8429657,-73.8541507,Open,Closes 5 PM,http://www.domsautobodybx.com/,2024-03-04 14:51:40,(718) 822-0794," 
""Excellent auto body repairs, well priced""",https://www.google.com/maps/place/Dom%27s+Auto+Body/data=!4m7!3m6!1s0x89c2f4b2b67d7ef9:0x90b71a5d8822a275!8m2!3d40.8429657!4d-73.8541507!16s%2Fg%2F1tglnv48!19sChIJ-X59trL0wokRdaIiiF0at5A?authuser=0&hl=en&rclk=1
Auto body repair shop bronx ny,Boston Road Collision,4.5,164,,Auto body shop,2345 Hollers Ave,40.8853501,-73.8255269,Open,Closes 5 PM,http://www.bostonroadcollision.net/,2024-03-04 14:51:41,(718) 324-0326," 
""Would highly recommend to anyone needing repairs!""",https://www.google.com/maps/place/Boston+Road+Collision/data=!4m7!3m6!1s0x89c2f3446abe63dd:0x45d87c9e04d3cd01!8m2!3d40.8853501!4d-73.8255269!16s%2Fg%2F1vgx1plx!19sChIJ3WO-akTzwokRAc3TBJ582EU?authuser=0&hl=en&rclk=1
Auto body repair shop bronx ny,Rhinelander Auto Body Ltd.,4.6,119,,Auto body shop,1909 White Plains Rd,40.847801,-73.867474,Open,Closes 5:30 PM,https://www.rhinelander.nyc/,2024-03-04 14:51:43,(718) 822-8905," 
""Excellent repair work.""",https://www.google.com/maps/place/Rhinelander+Auto+Body+Ltd./data=!4m7!3m6!1s0x89c2f4982517bc07:0xf9357c7239e696ca!8m2!3d40.847801!4d-73.867474!16s%2Fg%2F1thy0r2d!19sChIJB7wXJZj0wokRypbmOXJ8Nfk?authuser=0&hl=en&rclk=1
Auto body repair shop bronx ny,Karl's Auto Body Repair,4.8,45,,Auto body shop,316 W 240th St,40.886947,-73.902317,Open,Closes 5 PM,,2024-03-04 14:51:44,(718) 796-5544," 
""They did an excellent repair my my car that had been badly rear ended.""",https://www.google.com/maps/place/Karl%27s+Auto+Body+Repair/data=!4m7!3m6!1s0x89c2f3bb60dad541:0xf9b371db6d6f0de8!8m2!3d40.886947!4d-73.902317!16s%2Fg%2F1tgyxn4l!19sChIJQdXaYLvzwokR6A1vbdtxs_k?authuser=0&hl=en&rclk=1
Auto body repair shop bronx ny,Fashion Auto Body,4.9,37,,Auto body shop,1565 Stillwell Ave,40.8547444,-73.8419645,Open,Closes 5 PM,,2024-03-04 14:51:45,(718) 823-7908," 
""I highly recommend this shop for all vehicle damage repairs.""",https://www.google.com/maps/place/Fashion+Auto+Body/data=!4m7!3m6!1s0x89c2f35535326f23:0x59d888099dbe2c38!8m2!3d40.8547444!4d-73.8419645!16s%2Fg%2F1tj6vrsj!19sChIJI28yNVXzwokROCy-nQmI2Fk?authuser=0&hl=en&rclk=1
Auto body repair shop bronx ny,"Collision Proz Auto Body Shop - Auto Body Repair in The Bronx, NY",4.2,107,,Auto body shop,1558 Stillwell Ave,40.8542803,-73.8418604,Open,Closes 5 PM,https://collisionprozautobodyshop.com/,2024-03-04 14:51:46,(718) 684-7580," 
""They did an AMAZING job repairing my car.""","https://www.google.com/maps/place/Collision+Proz+Auto+Body+Shop+-+Auto+Body+Repair+in+The+Bronx,+NY/data=!4m7!3m6!1s0x89c28d9e3d12b213:0xee55720d00cd1f4c!8m2!3d40.8542803!4d-73.8418604!16s%2Fg%2F11kl5c7n9n!19sChIJE7ISPZ6NwokRTB_NAA1yVe4?authuser=0&hl=en&rclk=1"
Auto body repair shop bronx ny,New Look Auto Repair & Collision LLC,4.8,32,,Auto repair shop,4309 Third Ave,40.8490554,-73.8952429,Open,Closes 6 PM,,2024-03-04 14:51:47,(718) 304-9999,,https://www.google.com/maps/place/New+Look+Auto+Repair+%26+Collision+LLC/data=!4m7!3m6!1s0x89c2f46486d1ea53:0x9cfa5bdb9b5b44d8!8m2!3d40.8490554!4d-73.8952429!16s%2Fg%2F11gk8qvl66!19sChIJU-rRhmT0wokR2ERbm9tb-pw?authuser=0&hl=en&rclk=1
Auto body repair shop bronx ny,Jay's Auto Body Corp.,4.7,78,,Auto body shop,4150 Boston Rd #B,40.886303,-73.826238,Open,Closes 5 PM,https://wemeetbyaccidents.com/,2024-03-04 14:51:50,(718) 655-9480," 
""“BEST PLACE to go for repairs or anything you need for your car!!""",https://www.google.com/maps/place/Jay%27s+Auto+Body+Corp./data=!4m7!3m6!1s0x89c28cd96fde0c1d:0xd0f297c11b0af34d!8m2!3d40.886303!4d-73.826238!16s%2Fg%2F1tgnbjv0!19sChIJHQzeb9mMwokRTfMKG8GX8tA?authuser=0&hl=en&rclk=1
Auto body repair shop bronx ny,Pro Shop Auto Body Inc.,4.9,102,,Auto body shop,2622 Chesbrough Ave,40.8442768,-73.8446172,Open,Closes 5 PM,,2024-03-04 14:51:51,(718) 828-4099," 
""He kept me up to date with the repairs and the car came out great.""",https://www.google.com/maps/place/Pro+Shop+Auto+Body+Inc./data=!4m7!3m6!1s0x89c2f4ad78f1452d:0xc7a5f80a7569991a!8m2!3d40.8442768!4d-73.8446172!16s%2Fg%2F11bvctthz8!19sChIJLUXxeK30wokRGplpdQr4pcc?authuser=0&hl=en&rclk=1
Auto body repair shop bronx ny,AAJ Auto Collision,4.4,93,,Auto body shop,4504 Park Ave,40.8548564,-73.8948841,Open,Closes 5 PM,https://aajautocollision.com/?utm_source=omg-gbp&utm_medium=webclick,2024-03-04 14:51:52,(718) 295-4049," 
""Very quick to repair my vehicle and great service.""",https://www.google.com/maps/place/AAJ+Auto+Collision/data=!4m7!3m6!1s0x89c2f47bf547a559:0xe826975672e9def3!8m2!3d40.8548564!4d-73.8948841!16s%2Fg%2F11ddx22k54!19sChIJWaVH9Xv0wokR897pclaXJug?authuser=0&hl=en&rclk=1
Auto body repair shop bronx ny,Eastchester Auto Body,4.6,39,,Auto repair shop,1816 Eastchester Rd,40.8491642,-73.844852,Open,Closes 5 PM,,2024-03-04 14:51:53,(718) 828-4789,,https://www.google.com/maps/place/Eastchester+Auto+Body/data=!4m7!3m6!1s0x89c2f4ab821c2f15:0x4dddab47b1ea8452!8m2!3d40.8491642!4d-73.844852!16s%2Fg%2F1wf22swk!19sChIJFS8cgqv0wokRUoTqsUer3U0?authuser=0&hl=en&rclk=1
Auto body repair shop bronx ny,Natal auto body repair,4.6,74,,Auto body shop,704 Hunts Point Ave,40.8148656,-73.8858492,Open,Closes 6 PM,,2024-03-04 14:51:54,(718) 840-9221," 
""Natal auto repair inc, went out of business""",https://www.google.com/maps/place/Natal+auto+body+repair/data=!4m7!3m6!1s0x89c2f3cec2a6f10d:0x2cfc23c17cb8b98e!8m2!3d40.8148656!4d-73.8858492!16s%2Fg%2F11mws1k9qd!19sChIJDfGmws7zwokRjrm4fMEj_Cw?authuser=0&hl=en&rclk=1
Auto body repair shop bronx ny,Dynamic collision,4.7,80,,Auto body shop,1940 Jerome Ave,40.8508836,-73.9096657,Open,Closes 6 PM,https://dynamiccollision.business.site/?utm_source=gmb&utm_medium=referral,2024-03-04 14:51:55,(718) 676-0760," 
""Supply chain shortages meant repairing to get it done in a reasonable time.""",https://www.google.com/maps/place/Dynamic+collision/data=!4m7!3m6!1s0x89c2f57b3c1edfa1:0x3db57e65ff28a3e0!8m2!3d40.8508836!4d-73.9096657!16s%2Fg%2F11j67v5dgm!19sChIJod8ePHv1wokR4KMo_2V-tT0?authuser=0&hl=en&rclk=1
Auto body repair shop bronx ny,Anthony Auto Body Corp,4.8,20,,Auto body shop,1400 Commerce Ave,40.8385745,-73.8415158,Open,Closes 6 PM,https://anthony-auto-body-corp.business.site/?utm_source=gmb&utm_medium=referral,2024-03-04 14:51:57,(718) 597-8398," 
""... to be done and gave me a great price on the repairs needed.""",https://www.google.com/maps/place/Anthony+Auto+Body+Corp/data=!4m7!3m6!1s0x89c28b978541b519:0x169e53c48bc9961f!8m2!3d40.8385745!4d-73.8415158!16s%2Fg%2F11f8hlf3dt!19sChIJGbVBhZeLwokRH5bJi8RTnhY?authuser=0&hl=en&rclk=1
Auto body repair shop bronx ny,Amaro Auto Body Repair,3.8,49,,Auto body shop,872 E 149th St,40.8113323,-73.9035562,Open,Closes 7 PM,,2024-03-04 14:51:58,(347) 961-2342," 
""Amaro repair was excellent""",https://www.google.com/maps/place/Amaro+Auto+Body+Repair/data=!4m7!3m6!1s0x89c2f5baf5d0ee47:0xc5f98a4013e5bbac!8m2!3d40.8113323!4d-73.9035562!16s%2Fg%2F1tnqhy3y!19sChIJR-7Q9br1wokRrLvlE0CK-cU?authuser=0&hl=en&rclk=1
Auto body repair shop bronx ny,Riverside Auto Body,4.4,29,,Auto body shop,4246 Park Ave,40.8484083,-73.8985215,Open,Closes 7:30 PM,,2024-03-04 14:51:59,(718) 466-2666,,https://www.google.com/maps/place/Riverside+Auto+Body/data=!4m7!3m6!1s0x89c2f465ba903d59:0xa7d3b2f2e4185429!8m2!3d40.8484083!4d-73.8985215!16s%2Fg%2F1thss9qd!19sChIJWT2QumX0wokRKVQY5PKy06c?authuser=0&hl=en&rclk=1
Auto body repair shop bronx ny,boston road auto body nyc,4.3,6,,Auto body shop,2525 Boston Rd,40.8640108,-73.8648072,Open,Closes 5 PM,,2024-03-04 14:52:00,(347) 346-9015,,https://www.google.com/maps/place/boston+road+auto+body+nyc/data=!4m7!3m6!1s0x89c2f3a84bda1929:0x2c444894832319f2!8m2!3d40.8640108!4d-73.8648072!16s%2Fg%2F11kg65y2s8!19sChIJKRnaS6jzwokR8hkjg5RIRCw?authuser=0&hl=en&rclk=1
Auto body repair shop bronx ny,Personal Touch Auto Body,3.9,67,,Auto body shop,2500 Boston Rd,40.863362,-73.8649159,Open,Closes 5 PM,http://www.personaltouchautobodyny.com/,2024-03-04 14:52:01,(718) 652-3383," 
""All of my repairs were done on time.""",https://www.google.com/maps/place/Personal+Touch+Auto+Body/data=!4m7!3m6!1s0x89c2f35d8f0f906b:0x33a9210b7d3af87a!8m2!3d40.863362!4d-73.8649159!16s%2Fg%2F1tmxryzk!19sChIJa5APj13zwokRevg6fQshqTM?authuser=0&hl=en&rclk=1
Auto body repair shop bronx ny,Universe Auto Body,4.2,74,,Auto body shop,1825 Givan Ave,40.876695,-73.8398312,Open,Closes 5 PM,,2024-03-04 14:52:03,(718) 379-2100," 
""They are your go to place if you want your auto body repair needs satisfied.""",https://www.google.com/maps/place/Universe+Auto+Body/data=!4m7!3m6!1s0x89c28df905ac60f7:0x5173c8fb0008ba39!8m2!3d40.876695!4d-73.8398312!16s%2Fg%2F11j37x77p7!19sChIJ92CsBfmNwokROboIAPvIc1E?authuser=0&hl=en&rclk=1
Auto body repair shop bronx ny,Valanca Auto Concepts,4.1,108,,Auto body shop,1171 Zerega Ave,40.8324342,-73.8452333,Open,Closes 5 PM,https://valanca.com/,2024-03-04 14:52:04,(718) 828-2111," 
""I definitely will recommend them for any car repair.""",https://www.google.com/maps/place/Valanca+Auto+Concepts/data=!4m7!3m6!1s0x89c2f4ca507d154b:0x20b4c23bbf820082!8m2!3d40.8324342!4d-73.8452333!16s%2Fg%2F1tdyx8_n!19sChIJSxV9UMr0wokRggCCvzvCtCA?authuser=0&hl=en&rclk=1
Auto body repair shop bronx ny,Italy A&F Auto Repair,4.9,115,,Auto body shop,1539 Stillwell Ave,40.8541038,-73.8425929,Open,Closes 5 PM,https://www.italyautorepair.com/,2024-03-04 14:52:05,(718) 409-5459," 
""100% great place to get your car repaired!""
 
BOOK ONLINE",https://www.google.com/maps/place/Italy+A%26F+Auto+Repair/data=!4m7!3m6!1s0x89c2f3555aab23e5:0x47d09a4b7f149113!8m2!3d40.8541038!4d-73.8425929!16s%2Fg%2F11xc65kq0!19sChIJ5SOrWlXzwokRE5EUf0ua0Ec?authuser=0&hl=en&rclk=1
Auto body repair shop bronx ny,R N & AC Body Shop Inc,4.3,34,,Auto body shop,909 Sacket Ave,40.843338,-73.8554453,Open,Closes 5 PM,https://www.carwise.com/auto-body-shops/r-n-ac-body-shop-inc-bronx-ny-10462/507480,2024-03-04 14:52:06,(718) 792-5323," 
""Excellent car repair and services.""",https://www.google.com/maps/place/R+N+%26+AC+Body+Shop+Inc/data=!4m7!3m6!1s0x89c2f4baf3928a2d:0x6bab373bef105ed9!8m2!3d40.843338!4d-73.8554453!16s%2Fg%2F1tj9v82s!19sChIJLYqS87r0wokR2V4Q7zs3q2s?authuser=0&hl=en&rclk=1
Auto body repair shop bronx ny,Evolution Auto Body,4.4,47,,Auto body shop,1345 Cromwell Ave,40.8396364,-73.9206396,Open,Closes 5 PM,,2024-03-04 14:52:08,(718) 861-4848,,https://www.google.com/maps/place/Evolution+Auto+Body/data=!4m7!3m6!1s0x89c2f4f405e34a97:0x2ec1d554fe1552a2!8m2!3d40.8396364!4d-73.9206396!16s%2Fg%2F11bxbb07x0!19sChIJl0rjBfT0wokRolIV_lTVwS4?authuser=0&hl=en&rclk=1
Auto body repair shop bronx ny,1 stop auto body & collision inc.,3.3,13,,Auto body shop,523c Bruckner Blvd,40.8126378,-73.9017922,Open,Closes 5:30 PM,https://1-stop-auto-body-collision-inc.business.site/?utm_source=gmb&utm_medium=referral,2024-03-04 14:52:09,(347) 758-7122," 
""I needed a new paint job and Jay got it done!""",https://www.google.com/maps/place/1+stop+auto+body+%26+collision+inc./data=!4m7!3m6!1s0x89c2f5c69aa0cae3:0x9e4e17b06d1a7d44!8m2!3d40.8126378!4d-73.9017922!16s%2Fg%2F11kmcfl9md!19sChIJ48qgmsb1wokRRH0abbAXTp4?authuser=0&hl=en&rclk=1
Auto body repair shop bronx ny,MATH AUTO BODY 1,4.3,38,,Auto body shop,544 Casanova St,40.8120918,-73.8840713,Open,Closes 6 PM,,2024-03-04 14:52:10,(347) 758-6224," 
""Math auto body shop is the best repair shop I know at this point !""",https://www.google.com/maps/place/MATH+AUTO+BODY+1/data=!4m7!3m6!1s0x89c2f5e0e98d030f:0x8427e6c880a79d2e!8m2!3d40.8120918!4d-73.8840713!16s%2Fg%2F11gsb97myg!19sChIJDwON6eD1wokRLp2ngMjmJ4Q?authuser=0&hl=en&rclk=1
Auto body repair shop bronx ny,RG Auto Collision 11 Corp,4.8,12,,Auto body shop,1691 Carter Ave,40.844004,-73.9039,Open,Closes 5:30 PM,,2024-03-04 14:52:11,(917) 801-4040,,https://www.google.com/maps/place/RG+Auto+Collision+11+Corp/data=!4m7!3m6!1s0x89c2f469b5883e6d:0xaf618e0b82262c93!8m2!3d40.844004!4d-73.9039!16s%2Fg%2F11b6lj99fk!19sChIJbT6ItWn0wokRkywmgguOYa8?authuser=0&hl=en&rclk=1
Auto body repair shop bronx ny,A & R Auto Collision & Repair,3.5,42,,Auto body shop,1617 Stillwell Ave,40.8555606,-73.8408473,Open,Closes 6 PM,,2024-03-04 14:52:12,(347) 691-3861,,https://www.google.com/maps/place/A+%26+R+Auto+Collision+%26+Repair/data=!4m7!3m6!1s0x89c28caad92302ab:0x24ec587bb4a521b!8m2!3d40.8555606!4d-73.8408473!16s%2Fg%2F1vp702_8!19sChIJqwIj2aqMwokRG1JKu4fFTgI?authuser=0&hl=en&rclk=1
Auto body repair shop bronx ny,Custom Auto Tech.,4.8,111,,Auto body shop,1600 Stillwell Ave,40.8550277,-73.8408955,Open,Closes 6 PM,https://custom-auto-collision-inc.business.site/,2024-03-04 14:52:15,(347) 810-7803,"  ""Owner  Mike and his TEAM are magicians  in the body repair  business.""",https://www.google.com/maps/place/Custom+Auto+Tech./data=!4m7!3m6!1s0x89c28caadb124e6b:0xf8962d286cd3e275!8m2!3d40.8550277!4d-73.8408955!16s%2Fg%2F11ddwtpzxp!19sChIJa04S26qMwokRdeLTbCgtlvg?authuser=0&hl=en&rclk=1
Auto body repair shop bronx ny,AAA AUTO COLLISION,4.8,38,,Auto body shop,2267 Givan Ave,40.8809129,-73.8266286,Open,Closes 6:30 PM,,2024-03-04 14:52:16,(718) 655-8720," 
""Took my car there for repairs after a car accident that I had.""",https://www.google.com/maps/place/AAA+AUTO+COLLISION/data=!4m7!3m6!1s0x89c28cc4d2def193:0x97f28cf137a96abb!8m2!3d40.8809129!4d-73.8266286!16s%2Fg%2F11hbl9vtxn!19sChIJk_He0sSMwokRu2qpN_GM8pc?authuser=0&hl=en&rclk=1
Auto body repair shop bronx ny,JL Auto Collision,3.9,7,,Auto body shop,1829 Jerome Ave,40.8497013,-73.911178,Open,Closes 7 PM,,2024-03-04 14:52:17,(718) 299-0296,,https://www.google.com/maps/place/JL+Auto+Collision/data=!4m7!3m6!1s0x89c2f46cc0f419e1:0x81d1826aa011cdf4!8m2!3d40.8497013!4d-73.911178!16s%2Fg%2F11c1l91h_z!19sChIJ4Rn0wGz0wokR9M0RoGqC0YE?authuser=0&hl=en&rclk=1
Auto body repair shop bronx ny,King Automobile Body,5.0,16,,Auto body shop,905 Sacket Ave,40.8433204,-73.8555538,Open,Closes 7 PM,,2024-03-04 14:52:18,(718) 684-2323,,https://www.google.com/maps/place/King+Automobile+Body/data=!4m7!3m6!1s0x89c2f4baf6ac8b39:0x22da5d9c92ebf19e!8m2!3d40.8433204!4d-73.8555538!16s%2Fg%2F1tgjm6q1!19sChIJOYus9rr0wokRnvHrkpxd2iI?authuser=0&hl=en&rclk=1
Auto body repair shop bronx ny,Calecas Auto Repair,4.0,44,,Auto body shop,2236 Cross Bronx Service Rd N,40.8295053,-73.8489764,Open,Closes 7 PM,,2024-03-04 14:52:19,(718) 829-2560,,https://www.google.com/maps/place/Calecas+Auto+Repair/data=!4m7!3m6!1s0x89c2f4cc11ccfe7f:0x294fc4328075347d!8m2!3d40.8295053!4d-73.8489764!16s%2Fg%2F1tc_50jn!19sChIJf_7MEcz0wokRfTR1gDLETyk?authuser=0&hl=en&rclk=1
Auto body repair shop bronx ny,Tower Body Shop,4.3,62,,Auto body shop,1415 Cromwell Ave,40.8414001,-73.919548,Open,Closes 5 PM,http://www.liverynyc.com/,2024-03-04 14:52:20,(718) 293-6900,,https://www.google.com/maps/place/Tower+Body+Shop/data=!4m7!3m6!1s0x89c2f5f0ed56e6c9:0x1d8a0546986e80ba!8m2!3d40.8414001!4d-73.919548!16s%2Fg%2F11h59s4pk2!19sChIJyeZW7fD1wokRuoBumEYFih0?authuser=0&hl=en&rclk=1
Auto body repair shop bronx ny,T.Cool's Auto Body,4.7,62,,Auto body shop,1605 E 233rd St,40.8893553,-73.8292707,Open,Closes 10 PM,,2024-03-04 14:52:21,(917) 335-6227," 
""... Norwalk etc they charging me like 1000$ for small repair.one of my ...""",https://www.google.com/maps/place/T.Cool%27s+Auto+Body/data=!4m7!3m6!1s0x89c28cd83c72f051:0xcb2d3b55e36b64c8!8m2!3d40.8893553!4d-73.8292707!16s%2Fg%2F1tlbvm_t!19sChIJUfByPNiMwokRyGRr41U7Lcs?authuser=0&hl=en&rclk=1
Auto body repair shop bronx ny,Finest Auto Body,4.2,86,,Auto repair shop,3111 E Tremont Ave,40.8385487,-73.8351486,Closes soon,4:30 PMOpens 8 AM Tue,http://www.finestab.com/,2024-03-04 14:52:23,(718) 931-1752," 
""Repairs were made in a timely matter.""",https://www.google.com/maps/place/Finest+Auto+Body/data=!4m7!3m6!1s0x89c28b4ebb4f9757:0x7ec464edf633e21d!8m2!3d40.8385487!4d-73.8351486!16s%2Fg%2F1tdjxyp6!19sChIJV5dPu06LwokRHeIz9u1kxH4?authuser=0&hl=en&rclk=1
Auto body repair shop bronx ny,Point Auto Repair,4.7,33,,Auto body shop,662 Hunts Point Ave,40.8136244,-73.8846569,Open,Closes 6 PM,,2024-03-04 14:52:24,(646) 407-3698,,https://www.google.com/maps/place/Point+Auto+Repair/data=!4m7!3m6!1s0x89c2f50692a0ac05:0xc95fe9e2bf8a8a48!8m2!3d40.8136244!4d-73.8846569!16s%2Fg%2F1tj58pz6!19sChIJBaygkgb1wokRSIqKv-LpX8k?authuser=0&hl=en&rclk=1
Auto body repair shop bronx ny,"Cromwell Collision and Towing, Inc.",4.9,14,,Auto body shop,1297 Inwood Ave,40.838382,-73.9208724,Open,Closes 5 PM,https://www.cromwellcollisiontowing.com/,2024-03-04 14:52:25,(718) 588-5900,,"https://www.google.com/maps/place/Cromwell+Collision+and+Towing,+Inc./data=!4m7!3m6!1s0x89c2f5f1ac80ad3b:0x5743cb35d31cf48e!8m2!3d40.838382!4d-73.9208724!16s%2Fg%2F11syv03wxx!19sChIJO62ArPH1wokRjvQc0zXLQ1c?authuser=0&hl=en&rclk=1"
Auto body repair shop bronx ny,NY AUTO BODY CORP,3.6,7,,Auto body shop,1040 Bronx River Ave,40.8242013,-73.88277,Open,Closes 6 PM,,2024-03-04 14:52:26,(929) 575-4820,,https://www.google.com/maps/place/NY+AUTO+BODY+CORP/data=!4m7!3m6!1s0x89c2f4fc07159723:0x419c08db04e40b02!8m2!3d40.8242013!4d-73.88277!16s%2Fg%2F11gbk51_g7!19sChIJI5cVB_z0wokRAgvkBNsInEE?authuser=0&hl=en&rclk=1
Auto body repair shop bronx ny,Liberato Auto Collision,4.8,39,,Auto body shop,2629 Chesbrough Ave,40.8445025,-73.8448464,Open,Closes 6 PM,,2024-03-04 14:52:27,(347) 281-9055,,https://www.google.com/maps/place/Liberato+Auto+Collision/data=!4m7!3m6!1s0x89c2f4ad9d47e443:0x347770b9728a05!8m2!3d40.8445025!4d-73.8448464!16s%2Fg%2F11cm0y5f3t!19sChIJQ-RHna30wokRBYpyuXB3NAA?authuser=0&hl=en&rclk=1
Auto body repair shop bronx ny,Prospect Auto Collision & Service Center,4.7,93,,Auto body shop,3313 Laconia Ave,40.8734757,-73.8557916,Open,Closes 5 PM,https://www.prospectauto.net/?utm_source=omg-gbp&utm_medium=webclick,2024-03-04 14:52:29,(718) 881-3099," 
""Best autobody repair shop for luxury cars.""",https://www.google.com/maps/place/Prospect+Auto+Collision+%26+Service+Center/data=!4m7!3m6!1s0x89c2f347bbf06585:0x7b5c7ba0c07e47d4!8m2!3d40.8734757!4d-73.8557916!16s%2Fg%2F1tgf8qdq!19sChIJhWXwu0fzwokR1Ed-wKB7XHs?authuser=0&hl=en&rclk=1
Auto body repair shop bronx ny,Collision Masters-CMNY,4.6,56,,Auto body shop,4444 Park Ave,40.853494,-73.895376,Open,Closes 5 PM,https://collision-masters-cmny.business.site/?utm_source=gmb&utm_medium=referral,2024-03-04 14:52:30,(347) 323-2670," 
""I’ll be returning for all of my collision repair needs.""",https://www.google.com/maps/place/Collision+Masters-CMNY/data=!4m7!3m6!1s0x89c2f51710360f39:0xd9c948e44a4b3151!8m2!3d40.853494!4d-73.895376!16s%2Fg%2F11py96zb9q!19sChIJOQ82EBf1wokRUTFLSuRIydk?authuser=0&hl=en&rclk=1
Auto body repair shop bronx ny,"Sunnys Autobody, LLC",3.9,50,,Auto body shop,4151 Boston Rd,40.8868159,-73.8263811,Open,Closes 5 PM,http://www.sunnysautobody.com/,2024-03-04 14:52:31,(718) 325-5300," 
""This is my place to go when I need repairs""","https://www.google.com/maps/place/Sunnys+Autobody,+LLC/data=!4m7!3m6!1s0x89c28cd96d26e2d1:0xbc1489013a1fbbfd!8m2!3d40.8868159!4d-73.8263811!16s%2Fg%2F1ttyxnmv!19sChIJ0eImbdmMwokR_bsfOgGJFLw?authuser=0&hl=en&rclk=1"
Auto body repair shop bronx ny,BMJ Auto Collision,4.3,75,,Auto body shop,3446 Rombouts Ave,40.8834574,-73.8293396,Open 24 hours,,https://www.bmjautocollision.com/,2024-03-04 14:52:32,(914) 885-7823," 
""Would recommend to anyone looking for body repair""",https://www.google.com/maps/place/BMJ+Auto+Collision/data=!4m7!3m6!1s0x89c28d70066ab7db:0x1949048a31dae436!8m2!3d40.8834574!4d-73.8293396!16s%2Fg%2F11h41h156_!19sChIJ27dqBnCNwokRNuTaMYoESRk?authuser=0&hl=en&rclk=1
Auto body repair shop bronx ny,Timirchand Auto Collision Inc,5.0,5,,Auto body shop,4453 Bronx Blvd,40.9011048,-73.8569474,Open,Closes 5 PM,,2024-03-04 14:52:34,(718) 325-6801,,https://www.google.com/maps/place/Timirchand+Auto+Collision+Inc/data=!4m7!3m6!1s0x89c2f2dbc9913b77:0x4a3effa34f014d5a!8m2!3d40.9011048!4d-73.8569474!16s%2Fg%2F1tznn8j3!19sChIJdzuRydvywokRWk0BT6P_Pko?authuser=0&hl=en&rclk=1
Auto body repair shop bronx ny,Professional Auto Body Corp.,4.0,19,,Auto body shop,440 Wales Ave #436,40.8098013,-73.9080122,Open,Closes 6 PM,,2024-03-04 14:52:35,(718) 450-8786," 
""... together and then they provided the repairs that the auto needed.""",https://www.google.com/maps/place/Professional+Auto+Body+Corp./data=!4m7!3m6!1s0x89c2f5655a2b1f63:0x21cd84182b69b193!8m2!3d40.8098013!4d-73.9080122!16s%2Fg%2F11h3mwg72s!19sChIJYx8rWmX1wokRk7FpKxiEzSE?authuser=0&hl=en&rclk=1
Auto body repair shop bronx ny,Rose Art Auto Body,4.7,12,,Auto body shop,1207 Whitlock Ave,40.8268569,-73.8863918,Open,Closes 6 PM,,2024-03-04 14:52:36,(718) 893-4300," 
""Dont ask me why i know so many body shops, but this is the place i ...""",https://www.google.com/maps/place/Rose+Art+Auto+Body/data=!4m7!3m6!1s0x89c2f4f8557f8cc5:0x4e1f72436534fe96!8m2!3d40.8268569!4d-73.8863918!16s%2Fg%2F1tnbm1q7!19sChIJxYx_Vfj0wokRlv40ZUNyH04?authuser=0&hl=en&rclk=1
Auto body repair shop bronx ny,JJ COLLISION CENTER LLC,No reviews,,,Auto body shop,1928 Jerome Ave 2nd Floor,40.850532,-73.9099529,Open,Closes 6 PM,,2024-03-04 14:52:37,(929) 933-8440,,https://www.google.com/maps/place/JJ+COLLISION+CENTER+LLC/data=!4m7!3m6!1s0x89c2f5886abc2c61:0x28836667bd42e2fe!8m2!3d40.850532!4d-73.9099529!16s%2Fg%2F11pb7_jt8v!19sChIJYSy8aoj1wokR_uJCvWdmgyg?authuser=0&hl=en&rclk=1
Auto body repair shop bronx ny,Arthur Ave Auto Collision Inc,3.8,4,,Auto body shop,1998 Arthur Ave,40.8472771,-73.8926341,Open,Closes 6 PM,,2024-03-04 14:52:40,(347) 269-5122,,https://www.google.com/maps/place/Arthur+Ave+Auto+Collision+Inc/data=!4m7!3m6!1s0x89c2f519da2c3081:0x5676dcb84c1752a4!8m2!3d40.8472771!4d-73.8926341!16s%2Fg%2F11sfbj3bkl!19sChIJgTAs2hn1wokRpFIXTLjcdlY?authuser=0&hl=en&rclk=1
Auto body repair shop bronx ny,"Park Collision Center, Inc",4.9,13,,Auto body shop,4398 Park Ave,40.8523452,-73.8961616,Open,Closes 6 PM,,2024-03-04 14:52:41,(347) 297-6900," 
""My go to shop for any auto body repairs now.""","https://www.google.com/maps/place/Park+Collision+Center,+Inc/data=!4m7!3m6!1s0x89c2f5b48a0ae1eb:0x3defc01fbeae25a8!8m2!3d40.8523452!4d-73.8961616!16s%2Fg%2F11jpnd2tg8!19sChIJ6-EKirT1wokRqCWuvh_A7z0?authuser=0&hl=en&rclk=1"
Auto body repair shop bronx ny,Earl Scheib Paint & Body,4.2,123,,Auto body shop,787 Bruckner Blvd,40.8154796,-73.8960911,Open,Closes 6 PM,http://earlscheibpaintandbodybronx.com/,2024-03-04 14:52:42,(718) 378-3700," 
""I would definitely recommend him to anyone in need of body repair!""",https://www.google.com/maps/place/Earl+Scheib+Paint+%26+Body/data=!4m7!3m6!1s0x89c2f5aec0c4eecd:0x11edae623ae110d6!8m2!3d40.8154796!4d-73.8960911!16s%2Fg%2F1v3h_xty!19sChIJze7EwK71wokR1hDhOmKu7RE?authuser=0&hl=en&rclk=1
Auto body repair shop bronx ny,Eastchester Collision,4.2,13,,Auto body shop,3650 Dyre Ave,40.8855194,-73.830968,Open,Closes 5 AM Tue,https://eastchestercollision.com/,2024-03-04 14:52:43,(718) 881-3016," 
""definitely a recommended spot for collision repairs.""",https://www.google.com/maps/place/Eastchester+Collision/data=!4m7!3m6!1s0x89c28d1fe346e237:0xcaad75d76ed4d9eb!8m2!3d40.8855194!4d-73.830968!16s%2Fg%2F11hsxjpw2g!19sChIJN-JG4x-NwokR69nUbtd1rco?authuser=0&hl=en&rclk=1
Auto body repair shop bronx ny,Deluxe Auto Collision Repair,5.0,6,,Auto body shop,2639 Halperin Ave,40.8435235,-73.8435712,Open,Closes 6 PM,http://deluxeautocollisionrepair.godaddysites.com/,2024-03-04 14:52:44,(929) 301-3681," 
""I’ll be using them for future car repairs and services.""",https://www.google.com/maps/place/Deluxe+Auto+Collision+Repair/data=!4m7!3m6!1s0x89c2f5c0e02184eb:0x571a28902d14a722!8m2!3d40.8435235!4d-73.8435712!16s%2Fg%2F11t_lzyvzz!19sChIJ64Qh4MD1wokRIqcULZAoGlc?authuser=0&hl=en&rclk=1
Auto body repair shop bronx ny,OPZ Collision Repairs,4.7,21,,Auto body shop,3531 De Lavall Ave,40.884752,-73.829546,Open,Closes 5 PM,,2024-03-04 14:52:45,(718) 994-3451,,https://www.google.com/maps/place/OPZ+Collision+Repairs/data=!4m7!3m6!1s0x89c28cda72f76043:0x39571d1dd47d89f6!8m2!3d40.884752!4d-73.829546!16s%2Fg%2F1xpwkq69!19sChIJQ2D3ctqMwokR9ol91B0dVzk?authuser=0&hl=en&rclk=1
Auto body repair shop bronx ny,"Indar Auto Collision, Corp",3.6,42,,Auto body shop,4522 Park Ave,40.8552903,-73.8946207,Open,Closes 6 PM,,2024-03-04 14:52:46,(718) 220-2990," 
""All the talk about body shops being cutthroat doesn't apply here.""","https://www.google.com/maps/place/Indar+Auto+Collision,+Corp/data=!4m7!3m6!1s0x89c2f47c0eda5321:0xaca8f9add9b266ec!8m2!3d40.8552903!4d-73.8946207!16s%2Fg%2F11b5ysllyf!19sChIJIVPaDnz0wokR7Gay2a35qKw?authuser=0&hl=en&rclk=1"
Auto body repair shop bronx ny,Y C & L Auto Repair Inc,4.3,107,,Auto body shop,1277 Jerome Ave,40.8378845,-73.9199891,Open,Closes 7 PM,,2024-03-04 14:52:48,(718) 538-6533,,https://www.google.com/maps/place/Y+C+%26+L+Auto+Repair+Inc/data=!4m7!3m6!1s0x89c2f43a4d278a25:0x6c5fecc62cb31664!8m2!3d40.8378845!4d-73.9199891!16s%2Fg%2F1tghf210!19sChIJJYonTTr0wokRZBazLMbsX2w?authuser=0&hl=en&rclk=1
Auto body repair shop bronx ny,ALL CITY AUTO LLC,4.9,52,,Auto body shop,402 Manida St,40.8088268,-73.8868019,Open,Closes 5:30 PM,https://all-city-auto-llc.business.site/,2024-03-04 14:52:49,(347) 918-9983," 
""For auto body repair or mechanical needs amazing service""",https://www.google.com/maps/place/ALL+CITY+AUTO+LLC/data=!4m7!3m6!1s0x89c2f5e1f04cc959:0x2fb8d2277c372db9!8m2!3d40.8088268!4d-73.8868019!16s%2Fg%2F11fjy9k4qq!19sChIJWclM8OH1wokRuS03fCfSuC8?authuser=0&hl=en&rclk=1
Auto body repair shop bronx ny,Armory Auto Body Inc,2.8,4,,Auto body shop,3014 Riverdale Ave,40.8808277,-73.9095211,Open,Closes 5 PM,,2024-03-04 14:52:50,(718) 884-9940,,https://www.google.com/maps/place/Armory+Auto+Body+Inc/data=!4m7!3m6!1s0x89c2f39507d12fed:0xa423521ae47bf21e!8m2!3d40.8808277!4d-73.9095211!16s%2Fg%2F1td2_d04!19sChIJ7S_RB5XzwokRHvJ75BpSI6Q?authuser=0&hl=en&rclk=1
Auto body repair shop bronx ny,RL AUTO COLLISION,5.0,13,,Auto body shop,1074 Home St,40.827794,-73.887233,Open,Closes 6 PM,,2024-03-04 14:52:52,(718) 708-8029," 
""... recommend RL Auto Collision to anyone in need of auto repairs.""",https://www.google.com/maps/place/RL+AUTO+COLLISION/data=!4m7!3m6!1s0x89c2f5e9f4b24235:0xd21234a1f49fef8c!8m2!3d40.827794!4d-73.887233!16s%2Fg%2F11vb9vnw30!19sChIJNUKy9On1wokRjO-f9KE0EtI?authuser=0&hl=en&rclk=1
Auto body repair shop bronx ny,Xcel Body Work,4.7,10,,Auto body shop,"corner of, 4363 Bronx Blvd, E 237th St",40.8988906,-73.8587736,Open,Closes 6 PM,,2024-03-04 14:52:53,(646) 698-3955," 
""kept me in the loop and updates about my car while I was being repaired.""",https://www.google.com/maps/place/Xcel+Body+Work/data=!4m7!3m6!1s0x89c2f37ff52e37ed:0x6368f90d3be07dca!8m2!3d40.8988906!4d-73.8587736!16s%2Fg%2F11pz2d9l5q!19sChIJ7Tcu9X_zwokRyn3gOw35aGM?authuser=0&hl=en&rclk=1
Auto body repair shop bronx ny,"D&R Collision Specialist, INC.",4.3,6,,Auto body shop,4602-C Third Ave,40.8563392,-73.8907475,Open 24 hours,,https://drcollisionspecialistinc.business.site/?utm_source=gmb&utm_medium=referral,2024-03-04 14:52:54,(718) 329-9039," 
""Fender, bumper, new paint job and it was a great price.""","https://www.google.com/maps/place/D%26R+Collision+Specialist,+INC./data=!4m7!3m6!1s0x89c2f5e6b95f5aeb:0xa20b6fdaa6a133e8!8m2!3d40.8563392!4d-73.8907475!16s%2Fg%2F11j09_rc04!19sChIJ61pfueb1wokR6DOhptpvC6I?authuser=0&hl=en&rclk=1"
Auto body repair shop bronx ny,Deals On Wheels Auto Body Shop,5.0,9,,Auto body shop,1465 Bassett Ave,40.8522873,-73.8427188,Open,Closes 6 PM,,2024-03-04 14:52:55,(347) 621-5280," 
""Amazing repair shop.. would ...""",https://www.google.com/maps/place/Deals+On+Wheels+Auto+Body+Shop/data=!4m7!3m6!1s0x89c2f5106759ae57:0xd67f35cc468fb6aa!8m2!3d40.8522873!4d-73.8427188!16s%2Fg%2F11fj138qpj!19sChIJV65ZZxD1wokRqraPRsw1f9Y?authuser=0&hl=en&rclk=1
Auto body repair shop bronx ny,P&N Towing Collision And Paint,4.4,28,,Auto body shop,191 Bruckner Blvd # A,40.804189,-73.9139929,Open,Closes 5 PM,https://pn-auto-body-repair.business.site/,2024-03-04 14:52:57,(718) 292-6057," 
""P&N Auto Body repair is the best!!""",https://www.google.com/maps/place/P%26N+Towing+Collision+And+Paint/data=!4m7!3m6!1s0x89c2f5ea98aa45ef:0x72062a1936242972!8m2!3d40.804189!4d-73.9139929!16s%2Fg%2F11ggj59cx8!19sChIJ70WqmOr1wokRcikkNhkqBnI?authuser=0&hl=en&rclk=1
Auto body repair shop bronx ny,MG Auto Body Inc.,4.6,11,,Auto body shop,3074 Webster Ave,40.8703839,-73.877839,Closes soon,4:30 PMOpens 8:30 AM Tue,,2024-03-04 14:52:58,(718) 405-6655,,https://www.google.com/maps/place/MG+Auto+Body+Inc./data=!4m7!3m6!1s0x89c2f3702fb6630b:0x9bd860f4bf59c678!8m2!3d40.8703839!4d-73.877839!16s%2Fg%2F1vg_86y7!19sChIJC2O2L3DzwokReMZZv_Rg2Js?authuser=0&hl=en&rclk=1
Auto body repair shop bronx ny,Beethoven Auto Body Shop,3.0,2,,Auto body shop,1502 Inwood Ave,40.8428357,-73.9171277,Open,Closes 6 PM,,2024-03-04 14:52:59,(347) 862-0230,,https://www.google.com/maps/place/Beethoven+Auto+Body+Shop/data=!4m7!3m6!1s0x89c2f43e69679597:0xabe498288517cadd!8m2!3d40.8428357!4d-73.9171277!16s%2Fg%2F1tm0v2m9!19sChIJl5VnaT70wokR3coXhSiY5Ks?authuser=0&hl=en&rclk=1
Auto body repair shop bronx ny,H & H Auto Service,4.3,16,,Auto body shop,905 Sacket Ave,40.8433623,-73.8555749,Open,Closes 5 PM,,2024-03-04 14:53:00,(718) 828-3341," 
""Very good place for body repair!""",https://www.google.com/maps/place/H+%26+H+Auto+Service/data=!4m7!3m6!1s0x89c2f4baf6ac8b39:0x82c8983de2123772!8m2!3d40.8433623!4d-73.8555749!16s%2Fg%2F1tm8fxtj!19sChIJOYus9rr0wokRcjcS4j2YyII?authuser=0&hl=en&rclk=1
Auto body repair shop bronx ny,Redline Collision Pros,4.6,24,,Auto body shop,1570 Jerome Ave,40.8439654,-73.9147897,Open,Closes 5 PM,,2024-03-04 14:53:01,(347) 269-5860," 
""I will definitely be coming back for future repairs.""",https://www.google.com/maps/place/Redline+Collision+Pros/data=!4m7!3m6!1s0x89c2f5e96a677e05:0x50fd3e01cf8c5d7d!8m2!3d40.8439654!4d-73.9147897!16s%2Fg%2F11q46pcjxt!19sChIJBX5naun1wokRfV2MzwE-_VA?authuser=0&hl=en&rclk=1
Auto body repair shop bronx ny,East Coast Customs Automotive South Inc,4.1,44,,Auto body shop,1040 Bronx River Ave,40.8241951,-73.8828034,Open,Closes 5 PM,,2024-03-04 14:53:02,(718) 328-6230,,https://www.google.com/maps/place/East+Coast+Customs+Automotive+South+Inc/data=!4m7!3m6!1s0x89c2f4fc033fc83d:0xab2060d793c349b8!8m2!3d40.8241951!4d-73.8828034!16s%2Fg%2F11f9xwh26w!19sChIJPcg_A_z0wokRuEnDk9dgIKs?authuser=0&hl=en&rclk=1
Auto body repair shop bronx ny,AAA Best Auto Body,4.3,26,,Auto body shop,4454 White Plains Rd,40.8996906,-73.8530257,Open,Closes 6 PM,,2024-03-04 14:53:05,(718) 324-8033,,https://www.google.com/maps/place/AAA+Best+Auto+Body/data=!4m7!3m6!1s0x89c2f2d0b21b45c3:0x9786422de49b2aa6!8m2!3d40.8996906!4d-73.8530257!16s%2Fg%2F1tj22gxw!19sChIJw0UbstDywokRpiqb5C1Chpc?authuser=0&hl=en&rclk=1
Auto body repair shop bronx ny,Excellence auto collision inc,5.0,4,,Auto body shop,4410 Park Ave 3 floor,40.8526426,-73.8957395,Open,Closes 5 PM,,2024-03-04 14:53:06,(347) 862-2483,,https://www.google.com/maps/place/Excellence+auto+collision+inc/data=!4m7!3m6!1s0x89c2f5d676ade42b:0xa906d4948a65e8!8m2!3d40.8526426!4d-73.8957395!16s%2Fg%2F11kk7lsbnq!19sChIJK-Stdtb1wokR6GWKlNQGqQA?authuser=0&hl=en&rclk=1
Auto body repair shop bronx ny,Mid Bronx Super Repair,No reviews,,,Auto body shop,1204 Washington Ave,40.8308152,-73.9067261,Open,Closes 5 PM,https://midbronxrepair.com/,2024-03-04 14:53:07,(347) 278-3186,,https://www.google.com/maps/place/Mid+Bronx+Super+Repair/data=!4m7!3m6!1s0x89c2f5fdce963005:0x8c0094387ef5aaed!8m2!3d40.8308152!4d-73.9067261!16s%2Fg%2F11sckpgr8d!19sChIJBTCWzv31wokR7ar1fjiUAIw?authuser=0&hl=en&rclk=1
Auto body repair shop bronx ny,Platinum Autoworks Inc.,4.6,130,,Auto body shop,1345 Blondell Ave,40.842039,-73.8424964,Open,Closes 5 PM,,2024-03-04 14:53:08,(718) 518-7075," 
""Highly recommend to everyone who needs any type of repairs.""",https://www.google.com/maps/place/Platinum+Autoworks+Inc./data=!4m7!3m6!1s0x89c2f4b2cf230a3d:0xae5a38864eb6678d!8m2!3d40.842039!4d-73.8424964!16s%2Fg%2F11c542j3gp!19sChIJPQojz7L0wokRjWe2ToY4Wq4?authuser=0&hl=en&rclk=1
Auto body repair shop bronx ny,"Boca Chica Auto Body, Inc",4.0,4,,Auto body shop,1900 Jerome Ave,40.8503996,-73.9102063,Open,Closes 6 PM,,2024-03-04 14:53:10,(347) 271-5999,,"https://www.google.com/maps/place/Boca+Chica+Auto+Body,+Inc/data=!4m7!3m6!1s0x89c2f57a21a94285:0x2a1f3f76f3577801!8m2!3d40.8503996!4d-73.9102063!16s%2Fg%2F11qql3_llq!19sChIJhUKpIXr1wokRAXhX83Y_Hyo?authuser=0&hl=en&rclk=1"
Auto body repair shop bronx ny,KO Automotive,4.3,35,,Auto body shop,4044 Boston Rd,40.8849783,-73.8298915,Open,Closes 5 PM,,2024-03-04 14:53:11,(718) 684-7766," 
""They will explain all repairs and will help you with insurance questions.""",https://www.google.com/maps/place/KO+Automotive/data=!4m7!3m6!1s0x89c28cd09f8ad473:0x12e2964a0ab98007!8m2!3d40.8849783!4d-73.8298915!16s%2Fg%2F11b6_ffy76!19sChIJc9SKn9CMwokRB4C5CkqW4hI?authuser=0&hl=en&rclk=1
Auto body repair shop bronx ny,I&S Auto body,4.2,6,,Auto body shop,4410 Park Ave,40.8526426,-73.8957395,Open,Closes 6 PM,,2024-03-04 14:53:12,(917) 337-2491,,https://www.google.com/maps/place/I%26S+Auto+body/data=!4m7!3m6!1s0x89c2f590d3b25735:0xfe0618a515466434!8m2!3d40.8526426!4d-73.8957395!16s%2Fg%2F11srr74myd!19sChIJNVey05D1wokRNGRGFaUYBv4?authuser=0&hl=en&rclk=1
Auto body repair shop bronx ny,LIZA BROWN'S AUTOBODY CORP,3.3,49,,Auto body shop,191B Bruckner Blvd,40.8040457,-73.9142028,Open,Closes 5 PM,,2024-03-04 14:53:13,(718) 292-8288," 
""Great repair on vehicles excellent work done here.""",https://www.google.com/maps/place/LIZA+BROWN%27S+AUTOBODY+CORP/data=!4m7!3m6!1s0x89c2f4f0dabf4b5b:0x108bfe0487b67b7d!8m2!3d40.8040457!4d-73.9142028!16s%2Fg%2F11c7lw5wgk!19sChIJW0u_2vD0wokRfXu2hwT-ixA?authuser=0&hl=en&rclk=1
Auto body repair shop bronx ny,Mato Auto Body,4.5,10,,Auto body shop,1504 Inwood Ave,40.8429322,-73.91705,Open,Closes 6 PM,,2024-03-04 14:53:15,(718) 731-8110,,https://www.google.com/maps/place/Mato+Auto+Body/data=!4m7!3m6!1s0x89c2f43e6bcef1c1:0x713890d9c063a10a!8m2!3d40.8429322!4d-73.91705!16s%2Fg%2F1tkvbpqg!19sChIJwfHOaz70wokRCqFjwNmQOHE?authuser=0&hl=en&rclk=1
Auto body repair shop bronx ny,Bronx County Collision Inc,4.2,86,,Auto repair shop,1460 E 222nd St,40.876652,-73.837984,Open,Closes 5 PM,,2024-03-04 14:53:16,(718) 994-6700," 
""I recommend this place for any auto repairs.""",https://www.google.com/maps/place/Bronx+County+Collision+Inc/data=!4m7!3m6!1s0x89c28ccb9a82e5f1:0xef8bef07a48e184f!8m2!3d40.876652!4d-73.837984!16s%2Fg%2F1tdr93c4!19sChIJ8eWCmsuMwokRTxiOpAfvi-8?authuser=0&hl=en&rclk=1
Auto body repair shop bronx ny,Alijah Autobody Inc.,4.5,8,,Auto body shop,4515 Byron Ave,40.899826,-73.851342,Open,Closes 5 PM,https://alijahautobodyinc.org/,2024-03-04 14:53:17,(718) 798-4181," 
""Best BMW mechanic and body shop in the business, very reliable, ...""",https://www.google.com/maps/place/Alijah+Autobody+Inc./data=!4m7!3m6!1s0x89c2f31806bfb9d5:0x16d6b49072af7269!8m2!3d40.899826!4d-73.851342!16s%2Fg%2F11fn4b7nl0!19sChIJ1bm_BhjzwokRaXKvcpC01hY?authuser=0&hl=en&rclk=1
Auto body repair shop bronx ny,Carter Auto Collision,3.0,2,,Auto body shop,1683 Carter Ave,40.843792,-73.9041684,Open,Closes 6 PM,http://cartercarcollision.com/?utm_source=gmb&utm_medium=referral,2024-03-04 14:53:18,(914) 349-1494,,https://www.google.com/maps/place/Carter+Auto+Collision/data=!4m7!3m6!1s0x89c2f55edc4e11e1:0x2c15372ea6983a00!8m2!3d40.843792!4d-73.9041684!16s%2Fg%2F11ry8k60qv!19sChIJ4RFO3F71wokRADqYpi43FSw?authuser=0&hl=en&rclk=1
Auto body repair shop bronx ny,United Auto Body NY Corp,4.9,8,,Auto body shop,2255 Givan Ave # 4,40.8806748,-73.8272489,Open,Closes 5:30 PM,https://united-auto-body-ny-corp.business.site/,2024-03-04 14:53:19,(347) 899-8082," 
""If you do, and it needs repair, trust your car to Gavin @ United Auto.""",https://www.google.com/maps/place/United+Auto+Body+NY+Corp/data=!4m7!3m6!1s0x89c28da6b1f1cb6f:0xafaa101134da7f62!8m2!3d40.8806748!4d-73.8272489!16s%2Fg%2F11fjs473c1!19sChIJb8vxsaaNwokRYn_aNBEQqq8?authuser=0&hl=en&rclk=1
Auto body repair shop bronx ny,First Class Collision Specialist Inc,4.5,42,,Auto body shop,3008 Lurting Ave,40.8702198,-73.8563592,Open,Closes 6 PM,https://first-class-collision-specialist-inc.negocio.site/,2024-03-04 14:53:20,(718) 652-9219," 
""This is my main shop for body repairs.""",https://www.google.com/maps/place/First+Class+Collision+Specialist+Inc/data=!4m7!3m6!1s0x89c2f35d829470f9:0x2fb59d67494d3d12!8m2!3d40.8702198!4d-73.8563592!16s%2Fg%2F11dymg58s4!19sChIJ-XCUgl3zwokREj1NSWedtS8?authuser=0&hl=en&rclk=1
Auto body repair shop bronx ny,Collision Kings,5.0,6,,Auto body shop,684-A E 137th St,40.8044998,-73.9146261,Open,Closes 6 PM,,2024-03-04 14:53:22,(718) 618-0909," 
""... exactly what I needed Paint matches 100% to the rest of the car.""",https://www.google.com/maps/place/Collision+Kings/data=!4m7!3m6!1s0x89c2f59ad0459bd1:0x374ddadecd11f80d!8m2!3d40.8044998!4d-73.9146261!16s%2Fg%2F11t4ghzvzy!19sChIJ0ZtF0Jr1wokRDfgRzd7aTTc?authuser=0&hl=en&rclk=1
Auto body repair shop bronx ny,Xcellence Body Works,4.3,22,,Auto body shop,4170 Park Ave,40.8464736,-73.8995302,Open,Closes 6 PM,https://xcellence-auto-bodyworks.business.site/,2024-03-04 14:53:23,(347) 577-6923,,https://www.google.com/maps/place/Xcellence+Body+Works/data=!4m7!3m6!1s0x89c2f4660c21ee9d:0xffc09c9143ade515!8m2!3d40.8464736!4d-73.8995302!16s%2Fg%2F11f1z8lf1z!19sChIJne4hDGb0wokRFeWtQ5GcwP8?authuser=0&hl=en&rclk=1
Auto body repair shop bronx ny,"Orsap Towing , Auto Repair and body shop",4.3,57,,Auto body shop,1680 Jerome Ave,40.8460993,-73.9132812,Open 24 hours,,http://24nyctowing.com/,2024-03-04 14:53:24,(718) 731-0717,,"https://www.google.com/maps/place/Orsap+Towing+,+Auto+Repair+and+body+shop/data=!4m7!3m6!1s0x89c2f415286fb8db:0x94e77252e3facffc!8m2!3d40.8460993!4d-73.9132812!16s%2Fg%2F11g6wh2_d1!19sChIJ27hvKBX0wokR_M_641Jy55Q?authuser=0&hl=en&rclk=1"
Auto body repair shop bronx ny,EXECUTIVE EXPERT COLLISION INC,3.7,25,,Auto body shop,4213 Peters Pl,40.8960405,-73.8640972,Open,Closes 5 PM,https://executivecollision.com/,2024-03-04 14:53:25,(718) 325-8900," 
""... of the only body shops I've ever been to where the staff was polite ...""
 
BOOK ONLINE",https://www.google.com/maps/place/EXECUTIVE+EXPERT+COLLISION+INC/data=!4m7!3m6!1s0x89c2f33834dc2f7b:0x37bc82cfebbac8b1!8m2!3d40.8960405!4d-73.8640972!16s%2Fg%2F11p0y9ssz3!19sChIJey_cNDjzwokRsci668-CvDc?authuser=0&hl=en&rclk=1
Auto body repair shop bronx ny,L&J Auto Service inc,3.7,41,,Auto body shop,2180 Webster Ave,40.8544514,-73.8963454,Open,Closes 7 PM,,2024-03-04 14:53:27,(718) 294-4822," 
""I took my mdx for bumpers repair came out new ...""",https://www.google.com/maps/place/L%26J+Auto+Service+inc/data=!4m7!3m6!1s0x89c2f4685ce5fb67:0xce673a41a90d9962!8m2!3d40.8544514!4d-73.8963454!16s%2Fg%2F11gfgnqjgm!19sChIJZ_vlXGj0wokRYpkNqUE6Z84?authuser=0&hl=en&rclk=1
Auto body repair shop bronx ny,Bronx Auto Repair & Body Works,5.0,4,,Auto body shop,1048 Franklin Ave,40.8267633,-73.9073664,,,,2024-03-04 14:53:28,,,https://www.google.com/maps/place/Bronx+Auto+Repair+%26+Body+Works/data=!4m7!3m6!1s0x89c2f44b8e23d5e5:0xbff2767c7b3b8206!8m2!3d40.8267633!4d-73.9073664!16s%2Fg%2F1th0cch4!19sChIJ5dUjjkv0wokRBoI7e3x28r8?authuser=0&hl=en&rclk=1
Auto body repair shop bronx ny,L&J Auto Service inc,3.7,41,,Auto body shop,2180 Webster Ave,40.8544514,-73.8963454,Open,Closes 7 PM,,2024-03-04 14:53:31,(718) 294-4822," 
""I took my mdx for bumpers repair came out new ...""",https://www.google.com/maps/place/L%26J+Auto+Service+inc/data=!4m7!3m6!1s0x89c2f4685ce5fb67:0xce673a41a90d9962!8m2!3d40.8544514!4d-73.8963454!16s%2Fg%2F11gfgnqjgm!19sChIJZ_vlXGj0wokRYpkNqUE6Z84?authuser=0&hl=en&rclk=1
Auto body repair shop bronx ny,Bronx Auto Repair & Body Works,5.0,4,,Auto body shop,1048 Franklin Ave,40.8267633,-73.9073664,,,,2024-03-04 14:53:33,,,https://www.google.com/maps/place/Bronx+Auto+Repair+%26+Body+Works/data=!4m7!3m6!1s0x89c2f44b8e23d5e5:0xbff2767c7b3b8206!8m2!3d40.8267633!4d-73.9073664!16s%2Fg%2F1th0cch4!19sChIJ5dUjjkv0wokRBoI7e3x28r8?authuser=0&hl=en&rclk=1
Auto body repair shop bronx ny,On site auto collision inc.,5.0,5,,Auto body shop,4430 Park Ave,40.853211,-73.8955931,Open,Closes 5 AM Tue,http://onsiteautomotiveny.com/,2024-03-04 14:53:34,(347) 269-7463," 
""Excellent work on my car repairs!""",https://www.google.com/maps/place/On+site+auto+collision+inc./data=!4m7!3m6!1s0x89c2f5bdafb0b7f3:0x8055868e02d22942!8m2!3d40.853211!4d-73.8955931!16s%2Fg%2F11l2lxg1k_!19sChIJ87ewr731wokRQinSAo6GVYA?authuser=0&hl=en&rclk=1
Auto body repair shop bronx ny,HAZEI AUTO MALL REPAIR COP,No reviews,,,Auto body shop,10 W 181st St,40.8559132,-73.9063127,Open,Closes 5 PM,,2024-03-04 14:53:35,(917) 737-8140,,https://www.google.com/maps/place/HAZEI+AUTO+MALL+REPAIR+COP/data=!4m7!3m6!1s0x89c2f54e91ad618d:0x4114f2409423155f!8m2!3d40.8559132!4d-73.9063127!16s%2Fg%2F11kwwj7pks!19sChIJjWGtkU71wokRXxUjlEDyFEE?authuser=0&hl=en&rclk=1
Auto body repair shop bronx ny,Solution Auto Body General Mechanic,4.5,8,,Auto repair shop,1552 Jerome Ave,40.8435821,-73.9150621,Open,Closes 5 PM,,2024-03-04 14:53:36,(347) 498-1361,,https://www.google.com/maps/place/Solution+Auto+Body+General+Mechanic/data=!4m7!3m6!1s0x89c2f43fd28b0477:0x4730fb9ffae54993!8m2!3d40.8435821!4d-73.9150621!16s%2Fg%2F11fct6gczb!19sChIJdwSL0j_0wokRk0nl-p_7MEc?authuser=0&hl=en&rclk=1
Auto body repair shop bronx ny,CARSTAR Empire Auto Group,4.5,43,,Auto body shop,1403 Story Ave,40.821235,-73.8824183,Open,Closes 5 PM,https://www.carstar.com/locations/ny/bronx-15485/,2024-03-04 14:53:38,(646) 450-4191," 
""There are many body shops in this city but CARSTAR Empire Auto ...""
 
BOOK ONLINE",https://www.google.com/maps/place/CARSTAR+Empire+Auto+Group/data=!4m7!3m6!1s0x89c2f5ed5d44c1ff:0x4fe728bd0dcfc2c6!8m2!3d40.821235!4d-73.8824183!16s%2Fg%2F11fk4244x4!19sChIJ_8FEXe31wokRxsLPDb0o508?authuser=0&hl=en&rclk=1
Auto body repair shop bronx ny,Michaels Mobil auto body shop,4.6,14,,Auto body shop,729 Allerton Ave,40.8656172,-73.8660547,Open,Closes 8 PM,https://michael-mobil-auto-body-shop.business.site/?utm_source=gmb&utm_medium=referral,2024-03-04 14:53:39,(914) 562-3973," 
""He did an excellent job with the repair, while battling against a soggy ...""",https://www.google.com/maps/place/Michaels+Mobil+auto+body+shop/data=!4m7!3m6!1s0x89c2f3c03941613d:0xde11e8c6a6af2488!8m2!3d40.8656172!4d-73.8660547!16s%2Fg%2F11h64cntd4!19sChIJPWFBOcDzwokRiCSvpsboEd4?authuser=0&hl=en&rclk=1
Auto body repair shop bronx ny,Xtreme quality auto collision II,5.0,2,,Auto body shop,405 E 175th St,40.845597,-73.9016572,Open,Closes 6 PM,,2024-03-04 14:53:40,(646) 397-3774,,https://www.google.com/maps/place/Xtreme+quality+auto+collision+II/data=!4m7!3m6!1s0x89c2f54c753b3b1b:0x1e7322327afb46d4!8m2!3d40.845597!4d-73.9016572!16s%2Fg%2F11l27sgcqd!19sChIJGzs7dUz1wokR1Eb7ejIicx4?authuser=0&hl=en&rclk=1
Auto body repair shop bronx ny,Frameline Auto Body,5.0,10,,Auto body shop,442A E 172nd St,40.8403789,-73.902733,Open,Closes 5 PM,,2024-03-04 14:53:42,(718) 576-2479," 
""... even for the tiniest things, but not for the mechanics at Frameline.""",https://www.google.com/maps/place/Frameline+Auto+Body/data=!4m7!3m6!1s0x89c2f5ebd7ffb585:0xa661884422749c4b!8m2!3d40.8403789!4d-73.902733!16s%2Fg%2F11h3btqqdw!19sChIJhbX_1-v1wokRS5x0IkSIYaY?authuser=0&hl=en&rclk=1
Auto body repair shop bronx ny,Unique autobody,5.0,11,,Auto body shop,1711 Boone Ave,40.8357622,-73.8838285,Open,Closes 5 PM,,2024-03-04 14:53:43,(646) 667-0564," 
""... Unique Autobody Repairs to anyone in need of vehicle repairs""",https://www.google.com/maps/place/Unique+autobody/data=!4m7!3m6!1s0x89c2f503494bfd97:0xe1d054b974e334d0!8m2!3d40.8357622!4d-73.8838285!16s%2Fg%2F11fkw6s941!19sChIJl_1LSQP1wokR0DTjdLlU0OE?authuser=0&hl=en&rclk=1
Auto body repair shop bronx ny,DM Auto Repair,4.2,28,,Auto body shop,1261 Zerega Ave,40.834478,-73.845808,Open,Closes 5 PM,https://dmautoshop.com/galleries/autobody/,2024-03-04 14:53:44,(718) 792-6887," 
""the repair took a few days but when I picked up the car.""",https://www.google.com/maps/place/DM+Auto+Repair/data=!4m7!3m6!1s0x89c2f4b586289be1:0xa6e668726791954e!8m2!3d40.834478!4d-73.845808!16s%2Fg%2F11g1tbfdn5!19sChIJ4ZsohrX0wokRTpWRZ3Jo5qY?authuser=0&hl=en&rclk=1
Auto body repair shop bronx ny,R & W AUTOMOTIVE CORPORATION.,4.3,7,,Auto body shop,1607 Stillwell Ave,40.8553524,-73.8413525,Open,Closes 5 PM,,2024-03-04 14:53:45,(718) 994-7601," 
""Best body shop in the bronx…no… the world.""",https://www.google.com/maps/place/R+%26+W+AUTOMOTIVE+CORPORATION./data=!4m7!3m6!1s0x89c28caad083f8d5:0xb3ba24895e592ab3!8m2!3d40.8553524!4d-73.8413525!16s%2Fg%2F11hctkr8v6!19sChIJ1fiD0KqMwokRsypZXokkurM?authuser=0&hl=en&rclk=1
Auto body repair shop bronx ny,360 Collision & Towing Inc,4.8,32,,Auto body shop,684 E 137th St,40.804462,-73.914537,Open,Closes 5 PM,http://360collision.com/,2024-03-04 14:53:46,(347) 590-7704," 
""Very knowledgeable on collision repairs very professional attitude ...""",https://www.google.com/maps/place/360+Collision+%26+Towing+Inc/data=!4m7!3m6!1s0x89c2f5c027eceaa5:0x49c6c5d8ef1222e6!8m2!3d40.804462!4d-73.914537!16s%2Fg%2F1pp2vgmqf!19sChIJpersJ8D1wokR5iIS79jFxkk?authuser=0&hl=en&rclk=1
Auto body repair shop bronx ny,New England Collision Auto Cycle Repair,4.6,7,,Auto body shop,3327 Merritt Ave,40.88199,-73.826964,Closes soon,4 PMOpens 8 AM Tue,,2024-03-04 14:53:47,(718) 994-9800," 
""I came in for some body work, and they did a great job.""",https://www.google.com/maps/place/New+England+Collision+Auto+Cycle+Repair/data=!4m7!3m6!1s0x89c28df51536bf07:0x99532c3f5bfd46ba!8m2!3d40.88199!4d-73.826964!16s%2Fg%2F11sy3j26vb!19sChIJB782FfWNwokRukb9Wz8sU5k?authuser=0&hl=en&rclk=1
Auto body repair shop bronx ny,No Limit Auto Body Bronx,3.0,24,,Auto repair shop,1129 E 177th St,40.8385996,-73.8769374,Open,Closes 5 PM,,2024-03-04 14:53:49,(718) 684-5300,,https://www.google.com/maps/place/No+Limit+Auto+Body+Bronx/data=!4m7!3m6!1s0x89c2f5a1513893e5:0xaf79b7276592ea95!8m2!3d40.8385996!4d-73.8769374!16s%2Fg%2F11q1gj1zkg!19sChIJ5ZM4UaH1wokRleqSZSe3ea8?authuser=0&hl=en&rclk=1
Auto body repair shop bronx ny,VIP COLLISION,3.0,3,,Auto body shop,1299 Bronx River Ave,40.8314555,-73.8818352,Closes soon,4 PMOpens 8 AM Tue,,2024-03-04 14:53:50,,,https://www.google.com/maps/place/VIP+COLLISION/data=!4m7!3m6!1s0x89c2f514196477b7:0xc2b69b79faa878d7!8m2!3d40.8314555!4d-73.8818352!16s%2Fg%2F11pd3c1nbl!19sChIJt3dkGRT1wokR13io-nmbtsI?authuser=0&hl=en&rclk=1
Auto body repair shop bronx ny,Winston Repairs Inc,4.8,9,,Auto body shop,3008 Lurting Ave,40.870175,-73.856357,Open,Closes 5 PM,,2024-03-04 14:53:52,(718) 652-6780,,https://www.google.com/maps/place/Winston+Repairs+Inc/data=!4m7!3m6!1s0x89c2f345d5bdd935:0x7377ff84671ea7cf!8m2!3d40.870175!4d-73.856357!16s%2Fg%2F1tg9p1m4!19sChIJNdm91UXzwokRz6ceZ4T_d3M?authuser=0&hl=en&rclk=1
Auto body repair shop bronx ny,Edgewater Collision,4.5,29,,Auto body shop,704 Hunts Point Ave,40.8148656,-73.8858492,Open,Closes 7 PM,https://edgewater-collision.business.site/,2024-03-04 14:53:53,(718) 974-7220," 
""The quality of the repair they did was also A+.""",https://www.google.com/maps/place/Edgewater+Collision/data=!4m7!3m6!1s0x89c2f4fe3e61b9df:0xf64337fb9a3350b0!8m2!3d40.8148656!4d-73.8858492!16s%2Fg%2F1263slh_d!19sChIJ37lhPv70wokRsFAzmvs3Q_Y?authuser=0&hl=en&rclk=1
Auto body repair shop bronx ny,Impact Body Repairs Inc,5.0,15,,Auto body shop,4454 Bronx Blvd,40.9011124,-73.8564523,,,,2024-03-04 14:53:54,,,https://www.google.com/maps/place/Impact+Body+Repairs+Inc/data=!4m7!3m6!1s0x89c2f2da4a9b11af:0xa74a2003a993c216!8m2!3d40.9011124!4d-73.8564523!16s%2Fg%2F1thy0r1l!19sChIJrxGbStrywokRFsKTqQMgSqc?authuser=0&hl=en&rclk=1
Auto body repair shop bronx ny,Pro Dipper Auto Collision,1.0,1,,Auto body shop,1179 Grinnell Pl BLD# 2,40.8121479,-73.89313,Open,Closes 6 PM,,2024-03-04 14:53:55,(347) 713-3120,,https://www.google.com/maps/place/Pro+Dipper+Auto+Collision/data=!4m7!3m6!1s0x89c2f5db6d526df3:0x378dede4f29eb97c!8m2!3d40.8121479!4d-73.89313!16s%2Fg%2F11fhrgx61y!19sChIJ821Sbdv1wokRfLme8uTtjTc?authuser=0&hl=en&rclk=1
Auto body repair shop bronx ny,P & D Auto Body & Repair INC,4.2,5,,Auto repair shop,4450 Bronx Blvd,40.901005,-73.856549,Open,Closes 11 PM,,2024-03-04 14:53:56,(718) 994-6081,,https://www.google.com/maps/place/P+%26+D+Auto+Body+%26+Repair+INC/data=!4m7!3m6!1s0x89c2f2dbb5879197:0x287b2d6b806fa9b0!8m2!3d40.901005!4d-73.856549!16s%2Fg%2F1tk1nx_0!19sChIJl5GHtdvywokRsKlvgGsteyg?authuser=0&hl=en&rclk=1
Auto body repair shop bronx ny,A-Z Auto Repair & Body Shop,4.1,29,,Auto repair shop,3203 Boston Rd,40.8715252,-73.856183,Open,Closes 5 PM,http://a-z-auto-repair-body.keeq.io/,2024-03-04 14:53:58,(718) 822-8222," 
""My second time getting body work done on my car from the shop.""",https://www.google.com/maps/place/A-Z+Auto+Repair+%26+Body+Shop/data=!4m7!3m6!1s0x89c2f3465d90f3e9:0xb406fdeb6f7e33a4!8m2!3d40.8715252!4d-73.856183!16s%2Fg%2F11f159b6j2!19sChIJ6fOQXUbzwokRpDN-b-v9BrQ?authuser=0&hl=en&rclk=1
Auto body repair shop bronx ny,J&J Prestige Auto Collision And Repair Inc,3.8,78,,Auto body shop,2321 Bathgate Ave,40.8553859,-73.891345,Open,Closes 7 PM,https://www.jjprestigeautocollision.com/,2024-03-04 14:57:49,(646) 938-8068,,https://www.google.com/maps/place/J%26J+Prestige+Auto+Collision+And+Repair+Inc/data=!4m7!3m6!1s0x89c2f47dd6ffb77f:0x2b0b75516d17d0d8!8m2!3d40.8553859!4d-73.891345!16s%2Fg%2F11hctjxp5r!19sChIJf7f_1n30wokR2NAXbVF1Cys?authuser=0&hl=en&rclk=1
Auto body repair shop bronx ny,S&T Auto Body,4.6,491,,Auto body shop,4632 Third Ave,40.8566899,-73.8907953,Open,Closes 5 PM,http://stautobody.com/,2024-03-04 14:57:50,(718) 220-2201," 
""This is by far the best repair shop in the entire NY area.""
 
BOOK ONLINE",https://www.google.com/maps/place/S%26T+Auto+Body/data=!4m7!3m6!1s0x89c2f47e6ed8cd73:0x1f0d31d2bf99a31b!8m2!3d40.8566899!4d-73.8907953!16s%2Fg%2F1tlc8_kh!19sChIJc83Ybn70wokRG6OZv9IxDR8?authuser=0&hl=en&rclk=1
Auto body repair shop bronx ny,F&C BODY SHOP AND AUTO REPAIR,4.6,29,,Auto body shop,1271 Jerome Avenue Side Entrance,40.8378139,-73.920625,Open,Closes 5 PM,https://f-c-auto-body-repair.business.site/,2024-03-04 14:57:51,(718) 992-4001,,https://www.google.com/maps/place/F%26C+BODY+SHOP+AND+AUTO+REPAIR/data=!4m7!3m6!1s0x89c2f43bb3cd5347:0xdcc65938e864d032!8m2!3d40.8378139!4d-73.920625!16s%2Fg%2F1wj_v62c!19sChIJR1PNszv0wokRMtBk6DhZxtw?authuser=0&hl=en&rclk=1
Auto body repair shop bronx ny,Quality Auto Painting & Body,4.5,87,,Auto body shop,1941 Jerome Ave,40.851272,-73.90993,Open,Closes 5 PM,,2024-03-04 14:57:53,(718) 583-1540," 
""After a minor accident I took my car here for repairs.""",https://www.google.com/maps/place/Quality+Auto+Painting+%26+Body/data=!4m7!3m6!1s0x89c2f46d049410bb:0x1b4ec37ba64c5ddc!8m2!3d40.851272!4d-73.90993!16s%2Fg%2F1t_tl6t_!19sChIJuxCUBG30wokR3F1MpnvDThs?authuser=0&hl=en&rclk=1
Auto body repair shop bronx ny,Recharge Auto Body Repair,4.5,69,,Auto body shop,1088 Brook Ave,40.8290621,-73.9108421,Open,Closes 5:30 PM,http://www.rechargeauto.com/,2024-03-04 14:57:54,(917) 471-8071," 
""I highly recommend this shop for auto body repairs!!!""",https://www.google.com/maps/place/Recharge+Auto+Body+Repair/data=!4m7!3m6!1s0x89c2f590dfca540f:0x43f2d9638712fe2a!8m2!3d40.8290621!4d-73.9108421!16s%2Fg%2F11f5q84pmq!19sChIJD1TK35D1wokRKv4Sh2PZ8kM?authuser=0&hl=en&rclk=1
Auto body repair shop bronx ny,Triple M Auto Body Inc DBA Grand Prix Auto,5.0,48,,Auto body shop,3050 Boston Rd,40.8702772,-73.856356,Open,Closes 5 PM,,2024-03-04 14:57:55,(718) 231-6500," 
""I have no reserves in recommending this repair shop to anyone.""",https://www.google.com/maps/place/Triple+M+Auto+Body+Inc+DBA+Grand+Prix+Auto/data=!4m7!3m6!1s0x89c2f35d9141eceb:0xc7292b08ed1da913!8m2!3d40.8702772!4d-73.856356!16s%2Fg%2F11nxps1jgj!19sChIJ6-xBkV3zwokRE6kd7QgrKcc?authuser=0&hl=en&rclk=1
Auto body repair shop bronx ny,Park Avenue Auto Body Repair,4.5,91,,Auto body shop,3884 Park Ave,40.8401093,-73.9031913,Open,Closes 7 PM,,2024-03-04 14:57:56,(718) 294-5657,,https://www.google.com/maps/place/Park+Avenue+Auto+Body+Repair/data=!4m7!3m6!1s0x89c2f442fc3a3c8f:0x9ff97a389e22207c!8m2!3d40.8401093!4d-73.9031913!16s%2Fg%2F1ts3m3_m!19sChIJjzw6_EL0wokRfCAinjh6-Z8?authuser=0&hl=en&rclk=1
Auto body repair shop bronx ny,East Collision Inc. Auto Body Shop,4.8,108,,Auto body shop,2266 Tillotson Ave,40.8821706,-73.8272391,Closes soon,4:30 PMOpens 7:30 AM Tue,https://www.eastcollisionnewyork.com/,2024-03-04 14:57:57,(718) 994-4900," 
""An auto collision repair would seem to be a difficult problem.""",https://www.google.com/maps/place/East+Collision+Inc.+Auto+Body+Shop/data=!4m7!3m6!1s0x89c28cdae11acd71:0x9a8b7fa9887bb52a!8m2!3d40.8821706!4d-73.8272391!16s%2Fg%2F1vl5hq6r!19sChIJcc0a4dqMwokRKrV7iKl_i5o?authuser=0&hl=en&rclk=1
Auto body repair shop bronx ny,Dale-Way Auto Body Center,4.4,66,,Auto body shop,3039 Tibbett Ave,40.8805672,-73.9088306,Open,Closes 6 PM,http://www.dale-way.com/,2024-03-04 14:57:59,(718) 601-8100," 
""Repair done through insurance.""
 
BOOK ONLINE",https://www.google.com/maps/place/Dale-Way+Auto+Body+Center/data=!4m7!3m6!1s0x89c2f395ae08a9cb:0x5316285935e3c648!8m2!3d40.8805672!4d-73.9088306!16s%2Fg%2F1ttdzcqd!19sChIJy6kIrpXzwokRSMbjNVkoFlM?authuser=0&hl=en&rclk=1
Auto body repair shop bronx ny,Bruckner Collision,4.5,79,,Auto body shop,511 Bruckner Blvd,40.8103485,-73.9026412,Open,Closes 5 PM,https://brucknercollisionllc.com/,2024-03-04 14:58:00,(718) 292-8553," 
""My 2nd time using this repair shop.""",https://www.google.com/maps/place/Bruckner+Collision/data=!4m7!3m6!1s0x89c2f5badde513ed:0x86948bc363d65e52!8m2!3d40.8103485!4d-73.9026412!16s%2Fg%2F1td4l1cj!19sChIJ7RPl3br1wokRUl7WY8OLlIY?authuser=0&hl=en&rclk=1
Auto body repair shop bronx ny,MStop Auto Body & Repair,4.8,163,,Auto body shop,2970 Paulding Ave,40.8694492,-73.8585737,Open 24 hours,,http://www.mstopauto.com/,2024-03-04 14:58:01,(347) 533-8991," 
""Took my BMW for body paint repairs and they did what they do best.""",https://www.google.com/maps/place/MStop+Auto+Body+%26+Repair/data=!4m7!3m6!1s0x89c2f330c91aa1a5:0x6c608f0771a6f65b!8m2!3d40.8694492!4d-73.8585737!16s%2Fg%2F11hf3lxlt5!19sChIJpaEayTDzwokRW_amcQePYGw?authuser=0&hl=en&rclk=1
Auto body repair shop bronx ny,Frank & Son Autobody,4.7,121,,Auto body shop,1530 Stillwell Ave # B,40.8536746,-73.8424856,Open,Closes 5 PM,http://www.frankandsonautobody.net/,2024-03-04 14:58:02,(718) 822-6726," 
""Truly top Notch service and repairs.""
 
BOOK ONLINE",https://www.google.com/maps/place/Frank+%26+Son+Autobody/data=!4m7!3m6!1s0x89c2f3555638482b:0x9921ede8a128a08e!8m2!3d40.8536746!4d-73.8424856!16s%2Fg%2F1tgff94c!19sChIJK0g4VlXzwokRjqAooejtIZk?authuser=0&hl=en&rclk=1
Auto body repair shop bronx ny,A & A Auto Body Inc.,4.6,60,,Auto body shop,1341 Blondell Ave,40.8418431,-73.8423805,Open,Closes 6 PM,,2024-03-04 14:58:03,(718) 863-9070," 
""I took my 2022 Jeep Compass to have two repairs done and they did ...""",https://www.google.com/maps/place/A+%26+A+Auto+Body+Inc./data=!4m7!3m6!1s0x89c2f4b2cc20c1f1:0x470e319bcea0670e!8m2!3d40.8418431!4d-73.8423805!16s%2Fg%2F1tddt3qk!19sChIJ8cEgzLL0wokRDmegzpsxDkc?authuser=0&hl=en&rclk=1
Auto body repair shop bronx ny,Dom's Auto Body,4.3,39,,Auto body shop,2405 Poplar St,40.8429657,-73.8541507,Open,Closes 5 PM,http://www.domsautobodybx.com/,2024-03-04 14:58:04,(718) 822-0794," 
""Excellent auto body repairs, well priced""",https://www.google.com/maps/place/Dom%27s+Auto+Body/data=!4m7!3m6!1s0x89c2f4b2b67d7ef9:0x90b71a5d8822a275!8m2!3d40.8429657!4d-73.8541507!16s%2Fg%2F1tglnv48!19sChIJ-X59trL0wokRdaIiiF0at5A?authuser=0&hl=en&rclk=1
Auto body repair shop bronx ny,Boston Road Collision,4.5,164,,Auto body shop,2345 Hollers Ave,40.8853501,-73.8255269,Open,Closes 5 PM,http://www.bostonroadcollision.net/,2024-03-04 14:58:06,(718) 324-0326," 
""Would highly recommend to anyone needing repairs!""",https://www.google.com/maps/place/Boston+Road+Collision/data=!4m7!3m6!1s0x89c2f3446abe63dd:0x45d87c9e04d3cd01!8m2!3d40.8853501!4d-73.8255269!16s%2Fg%2F1vgx1plx!19sChIJ3WO-akTzwokRAc3TBJ582EU?authuser=0&hl=en&rclk=1
Auto body repair shop bronx ny,Rhinelander Auto Body Ltd.,4.6,119,,Auto body shop,1909 White Plains Rd,40.847801,-73.867474,Open,Closes 5:30 PM,https://www.rhinelander.nyc/,2024-03-04 14:58:07,(718) 822-8905," 
""Excellent repair work.""",https://www.google.com/maps/place/Rhinelander+Auto+Body+Ltd./data=!4m7!3m6!1s0x89c2f4982517bc07:0xf9357c7239e696ca!8m2!3d40.847801!4d-73.867474!16s%2Fg%2F1thy0r2d!19sChIJB7wXJZj0wokRypbmOXJ8Nfk?authuser=0&hl=en&rclk=1
Auto body repair shop bronx ny,Karl's Auto Body Repair,4.8,45,,Auto body shop,316 W 240th St,40.886947,-73.902317,Open,Closes 5 PM,,2024-03-04 14:58:08,(718) 796-5544," 
""They did an excellent repair my my car that had been badly rear ended.""",https://www.google.com/maps/place/Karl%27s+Auto+Body+Repair/data=!4m7!3m6!1s0x89c2f3bb60dad541:0xf9b371db6d6f0de8!8m2!3d40.886947!4d-73.902317!16s%2Fg%2F1tgyxn4l!19sChIJQdXaYLvzwokR6A1vbdtxs_k?authuser=0&hl=en&rclk=1
Auto body repair shop bronx ny,Fashion Auto Body,4.9,37,,Auto body shop,1565 Stillwell Ave,40.8547444,-73.8419645,Open,Closes 5 PM,,2024-03-04 14:58:09,(718) 823-7908," 
""I highly recommend this shop for all vehicle damage repairs.""",https://www.google.com/maps/place/Fashion+Auto+Body/data=!4m7!3m6!1s0x89c2f35535326f23:0x59d888099dbe2c38!8m2!3d40.8547444!4d-73.8419645!16s%2Fg%2F1tj6vrsj!19sChIJI28yNVXzwokROCy-nQmI2Fk?authuser=0&hl=en&rclk=1
Auto body repair shop bronx ny,"Collision Proz Auto Body Shop - Auto Body Repair in The Bronx, NY",4.2,107,,Auto body shop,1558 Stillwell Ave,40.8542803,-73.8418604,Open,Closes 5 PM,https://collisionprozautobodyshop.com/,2024-03-04 14:58:10,(718) 684-7580," 
""They did an AMAZING job repairing my car.""","https://www.google.com/maps/place/Collision+Proz+Auto+Body+Shop+-+Auto+Body+Repair+in+The+Bronx,+NY/data=!4m7!3m6!1s0x89c28d9e3d12b213:0xee55720d00cd1f4c!8m2!3d40.8542803!4d-73.8418604!16s%2Fg%2F11kl5c7n9n!19sChIJE7ISPZ6NwokRTB_NAA1yVe4?authuser=0&hl=en&rclk=1"
Auto body repair shop bronx ny,New Look Auto Repair & Collision LLC,4.8,32,,Auto repair shop,4309 Third Ave,40.8490554,-73.8952429,Open,Closes 6 PM,,2024-03-04 14:58:11,(718) 304-9999,,https://www.google.com/maps/place/New+Look+Auto+Repair+%26+Collision+LLC/data=!4m7!3m6!1s0x89c2f46486d1ea53:0x9cfa5bdb9b5b44d8!8m2!3d40.8490554!4d-73.8952429!16s%2Fg%2F11gk8qvl66!19sChIJU-rRhmT0wokR2ERbm9tb-pw?authuser=0&hl=en&rclk=1
Auto body repair shop bronx ny,Jay's Auto Body Corp.,4.7,78,,Auto body shop,4150 Boston Rd #B,40.886303,-73.826238,Open,Closes 5 PM,https://wemeetbyaccidents.com/,2024-03-04 14:58:14,(718) 655-9480," 
""“BEST PLACE to go for repairs or anything you need for your car!!""",https://www.google.com/maps/place/Jay%27s+Auto+Body+Corp./data=!4m7!3m6!1s0x89c28cd96fde0c1d:0xd0f297c11b0af34d!8m2!3d40.886303!4d-73.826238!16s%2Fg%2F1tgnbjv0!19sChIJHQzeb9mMwokRTfMKG8GX8tA?authuser=0&hl=en&rclk=1
Auto body repair shop bronx ny,Pro Shop Auto Body Inc.,4.9,102,,Auto body shop,2622 Chesbrough Ave,40.8442768,-73.8446172,Open,Closes 5 PM,,2024-03-04 14:58:15,(718) 828-4099," 
""He kept me up to date with the repairs and the car came out great.""",https://www.google.com/maps/place/Pro+Shop+Auto+Body+Inc./data=!4m7!3m6!1s0x89c2f4ad78f1452d:0xc7a5f80a7569991a!8m2!3d40.8442768!4d-73.8446172!16s%2Fg%2F11bvctthz8!19sChIJLUXxeK30wokRGplpdQr4pcc?authuser=0&hl=en&rclk=1
Auto body repair shop bronx ny,AAJ Auto Collision,4.4,93,,Auto body shop,4504 Park Ave,40.8548564,-73.8948841,Open,Closes 5 PM,https://aajautocollision.com/?utm_source=omg-gbp&utm_medium=webclick,2024-03-04 14:58:16,(718) 295-4049," 
""Very quick to repair my vehicle and great service.""",https://www.google.com/maps/place/AAJ+Auto+Collision/data=!4m7!3m6!1s0x89c2f47bf547a559:0xe826975672e9def3!8m2!3d40.8548564!4d-73.8948841!16s%2Fg%2F11ddx22k54!19sChIJWaVH9Xv0wokR897pclaXJug?authuser=0&hl=en&rclk=1
Auto body repair shop bronx ny,Eastchester Auto Body,4.6,39,,Auto repair shop,1816 Eastchester Rd,40.8491642,-73.844852,Open,Closes 5 PM,,2024-03-04 14:58:17,(718) 828-4789,,https://www.google.com/maps/place/Eastchester+Auto+Body/data=!4m7!3m6!1s0x89c2f4ab821c2f15:0x4dddab47b1ea8452!8m2!3d40.8491642!4d-73.844852!16s%2Fg%2F1wf22swk!19sChIJFS8cgqv0wokRUoTqsUer3U0?authuser=0&hl=en&rclk=1
Auto body repair shop bronx ny,Natal auto body repair,4.6,74,,Auto body shop,704 Hunts Point Ave,40.8148656,-73.8858492,Open,Closes 6 PM,,2024-03-04 14:58:18,(718) 840-9221," 
""Natal auto repair inc, went out of business""",https://www.google.com/maps/place/Natal+auto+body+repair/data=!4m7!3m6!1s0x89c2f3cec2a6f10d:0x2cfc23c17cb8b98e!8m2!3d40.8148656!4d-73.8858492!16s%2Fg%2F11mws1k9qd!19sChIJDfGmws7zwokRjrm4fMEj_Cw?authuser=0&hl=en&rclk=1
Auto body repair shop bronx ny,Dynamic collision,4.7,80,,Auto body shop,1940 Jerome Ave,40.8508836,-73.9096657,Open,Closes 6 PM,https://dynamiccollision.business.site/?utm_source=gmb&utm_medium=referral,2024-03-04 14:58:19,(718) 676-0760," 
""Supply chain shortages meant repairing to get it done in a reasonable time.""",https://www.google.com/maps/place/Dynamic+collision/data=!4m7!3m6!1s0x89c2f57b3c1edfa1:0x3db57e65ff28a3e0!8m2!3d40.8508836!4d-73.9096657!16s%2Fg%2F11j67v5dgm!19sChIJod8ePHv1wokR4KMo_2V-tT0?authuser=0&hl=en&rclk=1
Auto body repair shop bronx ny,Anthony Auto Body Corp,4.8,20,,Auto body shop,1400 Commerce Ave,40.8385745,-73.8415158,Open,Closes 6 PM,https://anthony-auto-body-corp.business.site/?utm_source=gmb&utm_medium=referral,2024-03-04 14:58:20,(718) 597-8398," 
""... to be done and gave me a great price on the repairs needed.""",https://www.google.com/maps/place/Anthony+Auto+Body+Corp/data=!4m7!3m6!1s0x89c28b978541b519:0x169e53c48bc9961f!8m2!3d40.8385745!4d-73.8415158!16s%2Fg%2F11f8hlf3dt!19sChIJGbVBhZeLwokRH5bJi8RTnhY?authuser=0&hl=en&rclk=1
Auto body repair shop bronx ny,Amaro Auto Body Repair,3.8,49,,Auto body shop,872 E 149th St,40.8113323,-73.9035562,Open,Closes 7 PM,,2024-03-04 14:58:22,(347) 961-2342," 
""Amaro repair was excellent""",https://www.google.com/maps/place/Amaro+Auto+Body+Repair/data=!4m7!3m6!1s0x89c2f5baf5d0ee47:0xc5f98a4013e5bbac!8m2!3d40.8113323!4d-73.9035562!16s%2Fg%2F1tnqhy3y!19sChIJR-7Q9br1wokRrLvlE0CK-cU?authuser=0&hl=en&rclk=1
Auto body repair shop bronx ny,Riverside Auto Body,4.4,29,,Auto body shop,4246 Park Ave,40.8484083,-73.8985215,Open,Closes 7:30 PM,,2024-03-04 14:58:23,(718) 466-2666,,https://www.google.com/maps/place/Riverside+Auto+Body/data=!4m7!3m6!1s0x89c2f465ba903d59:0xa7d3b2f2e4185429!8m2!3d40.8484083!4d-73.8985215!16s%2Fg%2F1thss9qd!19sChIJWT2QumX0wokRKVQY5PKy06c?authuser=0&hl=en&rclk=1
Auto body repair shop bronx ny,boston road auto body nyc,4.3,6,,Auto body shop,2525 Boston Rd,40.8640108,-73.8648072,Open,Closes 5 PM,,2024-03-04 14:58:24,(347) 346-9015,,https://www.google.com/maps/place/boston+road+auto+body+nyc/data=!4m7!3m6!1s0x89c2f3a84bda1929:0x2c444894832319f2!8m2!3d40.8640108!4d-73.8648072!16s%2Fg%2F11kg65y2s8!19sChIJKRnaS6jzwokR8hkjg5RIRCw?authuser=0&hl=en&rclk=1
Auto body repair shop bronx ny,Personal Touch Auto Body,3.9,67,,Auto body shop,2500 Boston Rd,40.863362,-73.8649159,Open,Closes 5 PM,http://www.personaltouchautobodyny.com/,2024-03-04 14:58:25,(718) 652-3383," 
""All of my repairs were done on time.""",https://www.google.com/maps/place/Personal+Touch+Auto+Body/data=!4m7!3m6!1s0x89c2f35d8f0f906b:0x33a9210b7d3af87a!8m2!3d40.863362!4d-73.8649159!16s%2Fg%2F1tmxryzk!19sChIJa5APj13zwokRevg6fQshqTM?authuser=0&hl=en&rclk=1
Auto body repair shop bronx ny,Universe Auto Body,4.2,74,,Auto body shop,1825 Givan Ave,40.876695,-73.8398312,Open,Closes 5 PM,,2024-03-04 14:58:26,(718) 379-2100," 
""They are your go to place if you want your auto body repair needs satisfied.""",https://www.google.com/maps/place/Universe+Auto+Body/data=!4m7!3m6!1s0x89c28df905ac60f7:0x5173c8fb0008ba39!8m2!3d40.876695!4d-73.8398312!16s%2Fg%2F11j37x77p7!19sChIJ92CsBfmNwokROboIAPvIc1E?authuser=0&hl=en&rclk=1
Auto body repair shop bronx ny,Valanca Auto Concepts,4.1,108,,Auto body shop,1171 Zerega Ave,40.8324342,-73.8452333,Open,Closes 5 PM,https://valanca.com/,2024-03-04 14:58:28,(718) 828-2111," 
""I definitely will recommend them for any car repair.""",https://www.google.com/maps/place/Valanca+Auto+Concepts/data=!4m7!3m6!1s0x89c2f4ca507d154b:0x20b4c23bbf820082!8m2!3d40.8324342!4d-73.8452333!16s%2Fg%2F1tdyx8_n!19sChIJSxV9UMr0wokRggCCvzvCtCA?authuser=0&hl=en&rclk=1
Auto body repair shop bronx ny,Italy A&F Auto Repair,4.9,115,,Auto body shop,1539 Stillwell Ave,40.8541038,-73.8425929,Open,Closes 5 PM,https://www.italyautorepair.com/,2024-03-04 14:58:29,(718) 409-5459," 
""100% great place to get your car repaired!""
 
BOOK ONLINE",https://www.google.com/maps/place/Italy+A%26F+Auto+Repair/data=!4m7!3m6!1s0x89c2f3555aab23e5:0x47d09a4b7f149113!8m2!3d40.8541038!4d-73.8425929!16s%2Fg%2F11xc65kq0!19sChIJ5SOrWlXzwokRE5EUf0ua0Ec?authuser=0&hl=en&rclk=1
Auto body repair shop bronx ny,R N & AC Body Shop Inc,4.3,34,,Auto body shop,909 Sacket Ave,40.843338,-73.8554453,Open,Closes 5 PM,https://www.carwise.com/auto-body-shops/r-n-ac-body-shop-inc-bronx-ny-10462/507480,2024-03-04 14:58:30,(718) 792-5323," 
""Excellent car repair and services.""",https://www.google.com/maps/place/R+N+%26+AC+Body+Shop+Inc/data=!4m7!3m6!1s0x89c2f4baf3928a2d:0x6bab373bef105ed9!8m2!3d40.843338!4d-73.8554453!16s%2Fg%2F1tj9v82s!19sChIJLYqS87r0wokR2V4Q7zs3q2s?authuser=0&hl=en&rclk=1
Auto body repair shop bronx ny,Evolution Auto Body,4.4,47,,Auto body shop,1345 Cromwell Ave,40.8396364,-73.9206396,Open,Closes 5 PM,,2024-03-04 14:58:31,(718) 861-4848,,https://www.google.com/maps/place/Evolution+Auto+Body/data=!4m7!3m6!1s0x89c2f4f405e34a97:0x2ec1d554fe1552a2!8m2!3d40.8396364!4d-73.9206396!16s%2Fg%2F11bxbb07x0!19sChIJl0rjBfT0wokRolIV_lTVwS4?authuser=0&hl=en&rclk=1
Auto body repair shop bronx ny,1 stop auto body & collision inc.,3.3,13,,Auto body shop,523c Bruckner Blvd,40.8126378,-73.9017922,Open,Closes 5:30 PM,https://1-stop-auto-body-collision-inc.business.site/?utm_source=gmb&utm_medium=referral,2024-03-04 14:58:32,(347) 758-7122," 
""I needed a new paint job and Jay got it done!""",https://www.google.com/maps/place/1+stop+auto+body+%26+collision+inc./data=!4m7!3m6!1s0x89c2f5c69aa0cae3:0x9e4e17b06d1a7d44!8m2!3d40.8126378!4d-73.9017922!16s%2Fg%2F11kmcfl9md!19sChIJ48qgmsb1wokRRH0abbAXTp4?authuser=0&hl=en&rclk=1
Auto body repair shop bronx ny,MATH AUTO BODY 1,4.3,38,,Auto body shop,544 Casanova St,40.8120918,-73.8840713,Open,Closes 6 PM,,2024-03-04 14:58:34,(347) 758-6224," 
""Math auto body shop is the best repair shop I know at this point !""",https://www.google.com/maps/place/MATH+AUTO+BODY+1/data=!4m7!3m6!1s0x89c2f5e0e98d030f:0x8427e6c880a79d2e!8m2!3d40.8120918!4d-73.8840713!16s%2Fg%2F11gsb97myg!19sChIJDwON6eD1wokRLp2ngMjmJ4Q?authuser=0&hl=en&rclk=1
Auto body repair shop bronx ny,RG Auto Collision 11 Corp,4.8,12,,Auto body shop,1691 Carter Ave,40.844004,-73.9039,Open,Closes 5:30 PM,,2024-03-04 14:58:35,(917) 801-4040,,https://www.google.com/maps/place/RG+Auto+Collision+11+Corp/data=!4m7!3m6!1s0x89c2f469b5883e6d:0xaf618e0b82262c93!8m2!3d40.844004!4d-73.9039!16s%2Fg%2F11b6lj99fk!19sChIJbT6ItWn0wokRkywmgguOYa8?authuser=0&hl=en&rclk=1
Auto body repair shop bronx ny,A & R Auto Collision & Repair,3.5,42,,Auto body shop,1617 Stillwell Ave,40.8555606,-73.8408473,Open,Closes 6 PM,,2024-03-04 14:58:36,(347) 691-3861,,https://www.google.com/maps/place/A+%26+R+Auto+Collision+%26+Repair/data=!4m7!3m6!1s0x89c28caad92302ab:0x24ec587bb4a521b!8m2!3d40.8555606!4d-73.8408473!16s%2Fg%2F1vp702_8!19sChIJqwIj2aqMwokRG1JKu4fFTgI?authuser=0&hl=en&rclk=1
Auto body repair shop bronx ny,Custom Auto Tech.,4.8,111,,Auto body shop,1600 Stillwell Ave,40.8550277,-73.8408955,Open,Closes 6 PM,https://custom-auto-collision-inc.business.site/,2024-03-04 14:58:38,(347) 810-7803,"  ""Owner  Mike and his TEAM are magicians  in the body repair  business.""",https://www.google.com/maps/place/Custom+Auto+Tech./data=!4m7!3m6!1s0x89c28caadb124e6b:0xf8962d286cd3e275!8m2!3d40.8550277!4d-73.8408955!16s%2Fg%2F11ddwtpzxp!19sChIJa04S26qMwokRdeLTbCgtlvg?authuser=0&hl=en&rclk=1
Auto body repair shop bronx ny,AAA AUTO COLLISION,4.8,38,,Auto body shop,2267 Givan Ave,40.8809129,-73.8266286,Open,Closes 6:30 PM,,2024-03-04 14:58:40,(718) 655-8720," 
""Took my car there for repairs after a car accident that I had.""",https://www.google.com/maps/place/AAA+AUTO+COLLISION/data=!4m7!3m6!1s0x89c28cc4d2def193:0x97f28cf137a96abb!8m2!3d40.8809129!4d-73.8266286!16s%2Fg%2F11hbl9vtxn!19sChIJk_He0sSMwokRu2qpN_GM8pc?authuser=0&hl=en&rclk=1
Auto body repair shop bronx ny,JL Auto Collision,3.9,7,,Auto body shop,1829 Jerome Ave,40.8497013,-73.911178,Open,Closes 7 PM,,2024-03-04 14:58:41,(718) 299-0296,,https://www.google.com/maps/place/JL+Auto+Collision/data=!4m7!3m6!1s0x89c2f46cc0f419e1:0x81d1826aa011cdf4!8m2!3d40.8497013!4d-73.911178!16s%2Fg%2F11c1l91h_z!19sChIJ4Rn0wGz0wokR9M0RoGqC0YE?authuser=0&hl=en&rclk=1
Auto body repair shop bronx ny,King Automobile Body,5.0,16,,Auto body shop,905 Sacket Ave,40.8433204,-73.8555538,Open,Closes 7 PM,,2024-03-04 14:58:42,(718) 684-2323,,https://www.google.com/maps/place/King+Automobile+Body/data=!4m7!3m6!1s0x89c2f4baf6ac8b39:0x22da5d9c92ebf19e!8m2!3d40.8433204!4d-73.8555538!16s%2Fg%2F1tgjm6q1!19sChIJOYus9rr0wokRnvHrkpxd2iI?authuser=0&hl=en&rclk=1
Auto body repair shop bronx ny,Calecas Auto Repair,4.0,44,,Auto body shop,2236 Cross Bronx Service Rd N,40.8295053,-73.8489764,Open,Closes 7 PM,,2024-03-04 14:58:43,(718) 829-2560,,https://www.google.com/maps/place/Calecas+Auto+Repair/data=!4m7!3m6!1s0x89c2f4cc11ccfe7f:0x294fc4328075347d!8m2!3d40.8295053!4d-73.8489764!16s%2Fg%2F1tc_50jn!19sChIJf_7MEcz0wokRfTR1gDLETyk?authuser=0&hl=en&rclk=1
Auto body repair shop bronx ny,Tower Body Shop,4.3,62,,Auto body shop,1415 Cromwell Ave,40.8414001,-73.919548,Open,Closes 5 PM,http://www.liverynyc.com/,2024-03-04 14:58:44,(718) 293-6900,,https://www.google.com/maps/place/Tower+Body+Shop/data=!4m7!3m6!1s0x89c2f5f0ed56e6c9:0x1d8a0546986e80ba!8m2!3d40.8414001!4d-73.919548!16s%2Fg%2F11h59s4pk2!19sChIJyeZW7fD1wokRuoBumEYFih0?authuser=0&hl=en&rclk=1
Auto body repair shop bronx ny,T.Cool's Auto Body,4.7,62,,Auto body shop,1605 E 233rd St,40.8893553,-73.8292707,Open,Closes 10 PM,,2024-03-04 14:58:45,(917) 335-6227," 
""... Norwalk etc they charging me like 1000$ for small repair.one of my ...""",https://www.google.com/maps/place/T.Cool%27s+Auto+Body/data=!4m7!3m6!1s0x89c28cd83c72f051:0xcb2d3b55e36b64c8!8m2!3d40.8893553!4d-73.8292707!16s%2Fg%2F1tlbvm_t!19sChIJUfByPNiMwokRyGRr41U7Lcs?authuser=0&hl=en&rclk=1
Auto body repair shop bronx ny,Finest Auto Body,4.2,86,,Auto repair shop,3111 E Tremont Ave,40.8385487,-73.8351486,Closes soon,4:30 PMOpens 8 AM Tue,http://www.finestab.com/,2024-03-04 14:58:47,(718) 931-1752," 
""Repairs were made in a timely matter.""",https://www.google.com/maps/place/Finest+Auto+Body/data=!4m7!3m6!1s0x89c28b4ebb4f9757:0x7ec464edf633e21d!8m2!3d40.8385487!4d-73.8351486!16s%2Fg%2F1tdjxyp6!19sChIJV5dPu06LwokRHeIz9u1kxH4?authuser=0&hl=en&rclk=1
Auto body repair shop bronx ny,Point Auto Repair,4.7,33,,Auto body shop,662 Hunts Point Ave,40.8136244,-73.8846569,Open,Closes 6 PM,,2024-03-04 14:58:48,(646) 407-3698,,https://www.google.com/maps/place/Point+Auto+Repair/data=!4m7!3m6!1s0x89c2f50692a0ac05:0xc95fe9e2bf8a8a48!8m2!3d40.8136244!4d-73.8846569!16s%2Fg%2F1tj58pz6!19sChIJBaygkgb1wokRSIqKv-LpX8k?authuser=0&hl=en&rclk=1
Auto body repair shop bronx ny,"Cromwell Collision and Towing, Inc.",4.9,14,,Auto body shop,1297 Inwood Ave,40.838382,-73.9208724,Open,Closes 5 PM,https://www.cromwellcollisiontowing.com/,2024-03-04 14:58:49,(718) 588-5900,,"https://www.google.com/maps/place/Cromwell+Collision+and+Towing,+Inc./data=!4m7!3m6!1s0x89c2f5f1ac80ad3b:0x5743cb35d31cf48e!8m2!3d40.838382!4d-73.9208724!16s%2Fg%2F11syv03wxx!19sChIJO62ArPH1wokRjvQc0zXLQ1c?authuser=0&hl=en&rclk=1"
Auto body repair shop bronx ny,NY AUTO BODY CORP,3.6,7,,Auto body shop,1040 Bronx River Ave,40.8242013,-73.88277,Open,Closes 6 PM,,2024-03-04 14:58:50,(929) 575-4820,,https://www.google.com/maps/place/NY+AUTO+BODY+CORP/data=!4m7!3m6!1s0x89c2f4fc07159723:0x419c08db04e40b02!8m2!3d40.8242013!4d-73.88277!16s%2Fg%2F11gbk51_g7!19sChIJI5cVB_z0wokRAgvkBNsInEE?authuser=0&hl=en&rclk=1
Auto body repair shop bronx ny,Liberato Auto Collision,4.8,39,,Auto body shop,2629 Chesbrough Ave,40.8445025,-73.8448464,Open,Closes 6 PM,,2024-03-04 14:58:51,(347) 281-9055,,https://www.google.com/maps/place/Liberato+Auto+Collision/data=!4m7!3m6!1s0x89c2f4ad9d47e443:0x347770b9728a05!8m2!3d40.8445025!4d-73.8448464!16s%2Fg%2F11cm0y5f3t!19sChIJQ-RHna30wokRBYpyuXB3NAA?authuser=0&hl=en&rclk=1
Auto body repair shop bronx ny,Prospect Auto Collision & Service Center,4.7,93,,Auto body shop,3313 Laconia Ave,40.8734757,-73.8557916,Open,Closes 5 PM,https://www.prospectauto.net/?utm_source=omg-gbp&utm_medium=webclick,2024-03-04 14:58:52,(718) 881-3099," 
""Best autobody repair shop for luxury cars.""",https://www.google.com/maps/place/Prospect+Auto+Collision+%26+Service+Center/data=!4m7!3m6!1s0x89c2f347bbf06585:0x7b5c7ba0c07e47d4!8m2!3d40.8734757!4d-73.8557916!16s%2Fg%2F1tgf8qdq!19sChIJhWXwu0fzwokR1Ed-wKB7XHs?authuser=0&hl=en&rclk=1
Auto body repair shop bronx ny,Collision Masters-CMNY,4.6,56,,Auto body shop,4444 Park Ave,40.853494,-73.895376,Open,Closes 5 PM,https://collision-masters-cmny.business.site/?utm_source=gmb&utm_medium=referral,2024-03-04 14:58:54,(347) 323-2670," 
""I’ll be returning for all of my collision repair needs.""",https://www.google.com/maps/place/Collision+Masters-CMNY/data=!4m7!3m6!1s0x89c2f51710360f39:0xd9c948e44a4b3151!8m2!3d40.853494!4d-73.895376!16s%2Fg%2F11py96zb9q!19sChIJOQ82EBf1wokRUTFLSuRIydk?authuser=0&hl=en&rclk=1
Auto body repair shop bronx ny,"Sunnys Autobody, LLC",3.9,50,,Auto body shop,4151 Boston Rd,40.8868159,-73.8263811,Open,Closes 5 PM,http://www.sunnysautobody.com/,2024-03-04 14:58:55,(718) 325-5300," 
""This is my place to go when I need repairs""","https://www.google.com/maps/place/Sunnys+Autobody,+LLC/data=!4m7!3m6!1s0x89c28cd96d26e2d1:0xbc1489013a1fbbfd!8m2!3d40.8868159!4d-73.8263811!16s%2Fg%2F1ttyxnmv!19sChIJ0eImbdmMwokR_bsfOgGJFLw?authuser=0&hl=en&rclk=1"
Auto body repair shop bronx ny,BMJ Auto Collision,4.3,75,,Auto body shop,3446 Rombouts Ave,40.8834574,-73.8293396,Open 24 hours,,https://www.bmjautocollision.com/,2024-03-04 14:58:56,(914) 885-7823," 
""Would recommend to anyone looking for body repair""",https://www.google.com/maps/place/BMJ+Auto+Collision/data=!4m7!3m6!1s0x89c28d70066ab7db:0x1949048a31dae436!8m2!3d40.8834574!4d-73.8293396!16s%2Fg%2F11h41h156_!19sChIJ27dqBnCNwokRNuTaMYoESRk?authuser=0&hl=en&rclk=1
Auto body repair shop bronx ny,Timirchand Auto Collision Inc,5.0,5,,Auto body shop,4453 Bronx Blvd,40.9011048,-73.8569474,Open,Closes 5 PM,,2024-03-04 14:58:57,(718) 325-6801,,https://www.google.com/maps/place/Timirchand+Auto+Collision+Inc/data=!4m7!3m6!1s0x89c2f2dbc9913b77:0x4a3effa34f014d5a!8m2!3d40.9011048!4d-73.8569474!16s%2Fg%2F1tznn8j3!19sChIJdzuRydvywokRWk0BT6P_Pko?authuser=0&hl=en&rclk=1
Auto body repair shop bronx ny,Professional Auto Body Corp.,4.0,19,,Auto body shop,440 Wales Ave #436,40.8098013,-73.9080122,Open,Closes 6 PM,,2024-03-04 14:58:59,(718) 450-8786," 
""... together and then they provided the repairs that the auto needed.""",https://www.google.com/maps/place/Professional+Auto+Body+Corp./data=!4m7!3m6!1s0x89c2f5655a2b1f63:0x21cd84182b69b193!8m2!3d40.8098013!4d-73.9080122!16s%2Fg%2F11h3mwg72s!19sChIJYx8rWmX1wokRk7FpKxiEzSE?authuser=0&hl=en&rclk=1
Auto body repair shop bronx ny,Rose Art Auto Body,4.7,12,,Auto body shop,1207 Whitlock Ave,40.8268569,-73.8863918,Open,Closes 6 PM,,2024-03-04 14:59:00,(718) 893-4300," 
""Dont ask me why i know so many body shops, but this is the place i ...""",https://www.google.com/maps/place/Rose+Art+Auto+Body/data=!4m7!3m6!1s0x89c2f4f8557f8cc5:0x4e1f72436534fe96!8m2!3d40.8268569!4d-73.8863918!16s%2Fg%2F1tnbm1q7!19sChIJxYx_Vfj0wokRlv40ZUNyH04?authuser=0&hl=en&rclk=1
Auto body repair shop bronx ny,JJ COLLISION CENTER LLC,No reviews,,,Auto body shop,1928 Jerome Ave 2nd Floor,40.850532,-73.9099529,Open,Closes 6 PM,,2024-03-04 14:59:01,(929) 933-8440,,https://www.google.com/maps/place/JJ+COLLISION+CENTER+LLC/data=!4m7!3m6!1s0x89c2f5886abc2c61:0x28836667bd42e2fe!8m2!3d40.850532!4d-73.9099529!16s%2Fg%2F11pb7_jt8v!19sChIJYSy8aoj1wokR_uJCvWdmgyg?authuser=0&hl=en&rclk=1
Auto body repair shop bronx ny,Arthur Ave Auto Collision Inc,3.8,4,,Auto body shop,1998 Arthur Ave,40.8472771,-73.8926341,Open,Closes 6 PM,,2024-03-04 14:59:03,(347) 269-5122,,https://www.google.com/maps/place/Arthur+Ave+Auto+Collision+Inc/data=!4m7!3m6!1s0x89c2f519da2c3081:0x5676dcb84c1752a4!8m2!3d40.8472771!4d-73.8926341!16s%2Fg%2F11sfbj3bkl!19sChIJgTAs2hn1wokRpFIXTLjcdlY?authuser=0&hl=en&rclk=1
Auto body repair shop bronx ny,"Park Collision Center, Inc",4.9,13,,Auto body shop,4398 Park Ave,40.8523452,-73.8961616,Open,Closes 6 PM,,2024-03-04 14:59:05,(347) 297-6900," 
""My go to shop for any auto body repairs now.""","https://www.google.com/maps/place/Park+Collision+Center,+Inc/data=!4m7!3m6!1s0x89c2f5b48a0ae1eb:0x3defc01fbeae25a8!8m2!3d40.8523452!4d-73.8961616!16s%2Fg%2F11jpnd2tg8!19sChIJ6-EKirT1wokRqCWuvh_A7z0?authuser=0&hl=en&rclk=1"
Auto body repair shop bronx ny,Earl Scheib Paint & Body,4.2,123,,Auto body shop,787 Bruckner Blvd,40.8154796,-73.8960911,Open,Closes 6 PM,http://earlscheibpaintandbodybronx.com/,2024-03-04 14:59:06,(718) 378-3700," 
""I would definitely recommend him to anyone in need of body repair!""",https://www.google.com/maps/place/Earl+Scheib+Paint+%26+Body/data=!4m7!3m6!1s0x89c2f5aec0c4eecd:0x11edae623ae110d6!8m2!3d40.8154796!4d-73.8960911!16s%2Fg%2F1v3h_xty!19sChIJze7EwK71wokR1hDhOmKu7RE?authuser=0&hl=en&rclk=1
Auto body repair shop bronx ny,Eastchester Collision,4.2,13,,Auto body shop,3650 Dyre Ave,40.8855194,-73.830968,Open,Closes 5 AM Tue,https://eastchestercollision.com/,2024-03-04 14:59:07,(718) 881-3016," 
""definitely a recommended spot for collision repairs.""",https://www.google.com/maps/place/Eastchester+Collision/data=!4m7!3m6!1s0x89c28d1fe346e237:0xcaad75d76ed4d9eb!8m2!3d40.8855194!4d-73.830968!16s%2Fg%2F11hsxjpw2g!19sChIJN-JG4x-NwokR69nUbtd1rco?authuser=0&hl=en&rclk=1
Auto body repair shop bronx ny,Deluxe Auto Collision Repair,5.0,6,,Auto body shop,2639 Halperin Ave,40.8435235,-73.8435712,Open,Closes 6 PM,http://deluxeautocollisionrepair.godaddysites.com/,2024-03-04 14:59:08,(929) 301-3681," 
""I’ll be using them for future car repairs and services.""",https://www.google.com/maps/place/Deluxe+Auto+Collision+Repair/data=!4m7!3m6!1s0x89c2f5c0e02184eb:0x571a28902d14a722!8m2!3d40.8435235!4d-73.8435712!16s%2Fg%2F11t_lzyvzz!19sChIJ64Qh4MD1wokRIqcULZAoGlc?authuser=0&hl=en&rclk=1
Auto body repair shop bronx ny,OPZ Collision Repairs,4.7,21,,Auto body shop,3531 De Lavall Ave,40.884752,-73.829546,Open,Closes 5 PM,,2024-03-04 14:59:09,(718) 994-3451,,https://www.google.com/maps/place/OPZ+Collision+Repairs/data=!4m7!3m6!1s0x89c28cda72f76043:0x39571d1dd47d89f6!8m2!3d40.884752!4d-73.829546!16s%2Fg%2F1xpwkq69!19sChIJQ2D3ctqMwokR9ol91B0dVzk?authuser=0&hl=en&rclk=1
Auto body repair shop bronx ny,"Indar Auto Collision, Corp",3.6,42,,Auto body shop,4522 Park Ave,40.8552903,-73.8946207,Open,Closes 6 PM,,2024-03-04 14:59:10,(718) 220-2990," 
""All the talk about body shops being cutthroat doesn't apply here.""","https://www.google.com/maps/place/Indar+Auto+Collision,+Corp/data=!4m7!3m6!1s0x89c2f47c0eda5321:0xaca8f9add9b266ec!8m2!3d40.8552903!4d-73.8946207!16s%2Fg%2F11b5ysllyf!19sChIJIVPaDnz0wokR7Gay2a35qKw?authuser=0&hl=en&rclk=1"
Auto body repair shop bronx ny,Y C & L Auto Repair Inc,4.3,107,,Auto body shop,1277 Jerome Ave,40.8378845,-73.9199891,Open,Closes 7 PM,,2024-03-04 14:59:12,(718) 538-6533,,https://www.google.com/maps/place/Y+C+%26+L+Auto+Repair+Inc/data=!4m7!3m6!1s0x89c2f43a4d278a25:0x6c5fecc62cb31664!8m2!3d40.8378845!4d-73.9199891!16s%2Fg%2F1tghf210!19sChIJJYonTTr0wokRZBazLMbsX2w?authuser=0&hl=en&rclk=1
Auto body repair shop bronx ny,ALL CITY AUTO LLC,4.9,52,,Auto body shop,402 Manida St,40.8088268,-73.8868019,Open,Closes 5:30 PM,https://all-city-auto-llc.business.site/,2024-03-04 14:59:13,(347) 918-9983," 
""For auto body repair or mechanical needs amazing service""",https://www.google.com/maps/place/ALL+CITY+AUTO+LLC/data=!4m7!3m6!1s0x89c2f5e1f04cc959:0x2fb8d2277c372db9!8m2!3d40.8088268!4d-73.8868019!16s%2Fg%2F11fjy9k4qq!19sChIJWclM8OH1wokRuS03fCfSuC8?authuser=0&hl=en&rclk=1
Auto body repair shop bronx ny,Armory Auto Body Inc,2.8,4,,Auto body shop,3014 Riverdale Ave,40.8808277,-73.9095211,Open,Closes 5 PM,,2024-03-04 14:59:14,(718) 884-9940,,https://www.google.com/maps/place/Armory+Auto+Body+Inc/data=!4m7!3m6!1s0x89c2f39507d12fed:0xa423521ae47bf21e!8m2!3d40.8808277!4d-73.9095211!16s%2Fg%2F1td2_d04!19sChIJ7S_RB5XzwokRHvJ75BpSI6Q?authuser=0&hl=en&rclk=1
Auto body repair shop bronx ny,RL AUTO COLLISION,5.0,13,,Auto body shop,1074 Home St,40.827794,-73.887233,Open,Closes 6 PM,,2024-03-04 14:59:15,(718) 708-8029," 
""... recommend RL Auto Collision to anyone in need of auto repairs.""",https://www.google.com/maps/place/RL+AUTO+COLLISION/data=!4m7!3m6!1s0x89c2f5e9f4b24235:0xd21234a1f49fef8c!8m2!3d40.827794!4d-73.887233!16s%2Fg%2F11vb9vnw30!19sChIJNUKy9On1wokRjO-f9KE0EtI?authuser=0&hl=en&rclk=1
Auto body repair shop bronx ny,Xcel Body Work,4.7,10,,Auto body shop,"corner of, 4363 Bronx Blvd, E 237th St",40.8988906,-73.8587736,Open,Closes 6 PM,,2024-03-04 14:59:16,(646) 698-3955," 
""kept me in the loop and updates about my car while I was being repaired.""",https://www.google.com/maps/place/Xcel+Body+Work/data=!4m7!3m6!1s0x89c2f37ff52e37ed:0x6368f90d3be07dca!8m2!3d40.8988906!4d-73.8587736!16s%2Fg%2F11pz2d9l5q!19sChIJ7Tcu9X_zwokRyn3gOw35aGM?authuser=0&hl=en&rclk=1
Auto body repair shop bronx ny,"D&R Collision Specialist, INC.",4.3,6,,Auto body shop,4602-C Third Ave,40.8563392,-73.8907475,Open 24 hours,,https://drcollisionspecialistinc.business.site/?utm_source=gmb&utm_medium=referral,2024-03-04 14:59:18,(718) 329-9039," 
""Fender, bumper, new paint job and it was a great price.""","https://www.google.com/maps/place/D%26R+Collision+Specialist,+INC./data=!4m7!3m6!1s0x89c2f5e6b95f5aeb:0xa20b6fdaa6a133e8!8m2!3d40.8563392!4d-73.8907475!16s%2Fg%2F11j09_rc04!19sChIJ61pfueb1wokR6DOhptpvC6I?authuser=0&hl=en&rclk=1"
Auto body repair shop bronx ny,Deals On Wheels Auto Body Shop,5.0,9,,Auto body shop,1465 Bassett Ave,40.8522873,-73.8427188,Open,Closes 6 PM,,2024-03-04 14:59:19,(347) 621-5280," 
""Amazing repair shop.. would ...""",https://www.google.com/maps/place/Deals+On+Wheels+Auto+Body+Shop/data=!4m7!3m6!1s0x89c2f5106759ae57:0xd67f35cc468fb6aa!8m2!3d40.8522873!4d-73.8427188!16s%2Fg%2F11fj138qpj!19sChIJV65ZZxD1wokRqraPRsw1f9Y?authuser=0&hl=en&rclk=1
Auto body repair shop bronx ny,P&N Towing Collision And Paint,4.4,28,,Auto body shop,191 Bruckner Blvd # A,40.804189,-73.9139929,Open,Closes 5 PM,https://pn-auto-body-repair.business.site/,2024-03-04 14:59:20,(718) 292-6057," 
""P&N Auto Body repair is the best!!""",https://www.google.com/maps/place/P%26N+Towing+Collision+And+Paint/data=!4m7!3m6!1s0x89c2f5ea98aa45ef:0x72062a1936242972!8m2!3d40.804189!4d-73.9139929!16s%2Fg%2F11ggj59cx8!19sChIJ70WqmOr1wokRcikkNhkqBnI?authuser=0&hl=en&rclk=1
Auto body repair shop bronx ny,MG Auto Body Inc.,4.6,11,,Auto body shop,3074 Webster Ave,40.8703839,-73.877839,Closes soon,4:30 PMOpens 8:30 AM Tue,,2024-03-04 14:59:22,(718) 405-6655,,https://www.google.com/maps/place/MG+Auto+Body+Inc./data=!4m7!3m6!1s0x89c2f3702fb6630b:0x9bd860f4bf59c678!8m2!3d40.8703839!4d-73.877839!16s%2Fg%2F1vg_86y7!19sChIJC2O2L3DzwokReMZZv_Rg2Js?authuser=0&hl=en&rclk=1
Auto body repair shop bronx ny,Beethoven Auto Body Shop,3.0,2,,Auto body shop,1502 Inwood Ave,40.8428357,-73.9171277,Open,Closes 6 PM,,2024-03-04 14:59:23,(347) 862-0230,,https://www.google.com/maps/place/Beethoven+Auto+Body+Shop/data=!4m7!3m6!1s0x89c2f43e69679597:0xabe498288517cadd!8m2!3d40.8428357!4d-73.9171277!16s%2Fg%2F1tm0v2m9!19sChIJl5VnaT70wokR3coXhSiY5Ks?authuser=0&hl=en&rclk=1
Auto body repair shop bronx ny,H & H Auto Service,4.3,16,,Auto body shop,905 Sacket Ave,40.8433623,-73.8555749,Open,Closes 5 PM,,2024-03-04 14:59:24,(718) 828-3341," 
""Very good place for body repair!""",https://www.google.com/maps/place/H+%26+H+Auto+Service/data=!4m7!3m6!1s0x89c2f4baf6ac8b39:0x82c8983de2123772!8m2!3d40.8433623!4d-73.8555749!16s%2Fg%2F1tm8fxtj!19sChIJOYus9rr0wokRcjcS4j2YyII?authuser=0&hl=en&rclk=1
Auto body repair shop bronx ny,Redline Collision Pros,4.6,24,,Auto body shop,1570 Jerome Ave,40.8439654,-73.9147897,Open,Closes 5 PM,,2024-03-04 14:59:25,(347) 269-5860," 
""I will definitely be coming back for future repairs.""",https://www.google.com/maps/place/Redline+Collision+Pros/data=!4m7!3m6!1s0x89c2f5e96a677e05:0x50fd3e01cf8c5d7d!8m2!3d40.8439654!4d-73.9147897!16s%2Fg%2F11q46pcjxt!19sChIJBX5naun1wokRfV2MzwE-_VA?authuser=0&hl=en&rclk=1
Auto body repair shop bronx ny,East Coast Customs Automotive South Inc,4.1,44,,Auto body shop,1040 Bronx River Ave,40.8241951,-73.8828034,Open,Closes 5 PM,,2024-03-04 14:59:26,(718) 328-6230,,https://www.google.com/maps/place/East+Coast+Customs+Automotive+South+Inc/data=!4m7!3m6!1s0x89c2f4fc033fc83d:0xab2060d793c349b8!8m2!3d40.8241951!4d-73.8828034!16s%2Fg%2F11f9xwh26w!19sChIJPcg_A_z0wokRuEnDk9dgIKs?authuser=0&hl=en&rclk=1
Auto body repair shop bronx ny,AAA Best Auto Body,4.3,26,,Auto body shop,4454 White Plains Rd,40.8996906,-73.8530257,Open,Closes 6 PM,,2024-03-04 14:59:29,(718) 324-8033,,https://www.google.com/maps/place/AAA+Best+Auto+Body/data=!4m7!3m6!1s0x89c2f2d0b21b45c3:0x9786422de49b2aa6!8m2!3d40.8996906!4d-73.8530257!16s%2Fg%2F1tj22gxw!19sChIJw0UbstDywokRpiqb5C1Chpc?authuser=0&hl=en&rclk=1
Auto body repair shop bronx ny,Excellence auto collision inc,5.0,4,,Auto body shop,4410 Park Ave 3 floor,40.8526426,-73.8957395,Open,Closes 5 PM,,2024-03-04 14:59:30,(347) 862-2483,,https://www.google.com/maps/place/Excellence+auto+collision+inc/data=!4m7!3m6!1s0x89c2f5d676ade42b:0xa906d4948a65e8!8m2!3d40.8526426!4d-73.8957395!16s%2Fg%2F11kk7lsbnq!19sChIJK-Stdtb1wokR6GWKlNQGqQA?authuser=0&hl=en&rclk=1
Auto body repair shop bronx ny,Mid Bronx Super Repair,No reviews,,,Auto body shop,1204 Washington Ave,40.8308152,-73.9067261,Open,Closes 5 PM,https://midbronxrepair.com/,2024-03-04 14:59:31,(347) 278-3186,,https://www.google.com/maps/place/Mid+Bronx+Super+Repair/data=!4m7!3m6!1s0x89c2f5fdce963005:0x8c0094387ef5aaed!8m2!3d40.8308152!4d-73.9067261!16s%2Fg%2F11sckpgr8d!19sChIJBTCWzv31wokR7ar1fjiUAIw?authuser=0&hl=en&rclk=1
Auto body repair shop bronx ny,Platinum Autoworks Inc.,4.6,130,,Auto body shop,1345 Blondell Ave,40.842039,-73.8424964,Open,Closes 5 PM,,2024-03-04 14:59:32,(718) 518-7075," 
""Highly recommend to everyone who needs any type of repairs.""",https://www.google.com/maps/place/Platinum+Autoworks+Inc./data=!4m7!3m6!1s0x89c2f4b2cf230a3d:0xae5a38864eb6678d!8m2!3d40.842039!4d-73.8424964!16s%2Fg%2F11c542j3gp!19sChIJPQojz7L0wokRjWe2ToY4Wq4?authuser=0&hl=en&rclk=1
Auto body repair shop bronx ny,"Boca Chica Auto Body, Inc",4.0,4,,Auto body shop,1900 Jerome Ave,40.8503996,-73.9102063,Open,Closes 6 PM,,2024-03-04 14:59:33,(347) 271-5999,,"https://www.google.com/maps/place/Boca+Chica+Auto+Body,+Inc/data=!4m7!3m6!1s0x89c2f57a21a94285:0x2a1f3f76f3577801!8m2!3d40.8503996!4d-73.9102063!16s%2Fg%2F11qql3_llq!19sChIJhUKpIXr1wokRAXhX83Y_Hyo?authuser=0&hl=en&rclk=1"
Auto body repair shop bronx ny,KO Automotive,4.3,35,,Auto body shop,4044 Boston Rd,40.8849783,-73.8298915,Open,Closes 5 PM,,2024-03-04 14:59:34,(718) 684-7766," 
""They will explain all repairs and will help you with insurance questions.""",https://www.google.com/maps/place/KO+Automotive/data=!4m7!3m6!1s0x89c28cd09f8ad473:0x12e2964a0ab98007!8m2!3d40.8849783!4d-73.8298915!16s%2Fg%2F11b6_ffy76!19sChIJc9SKn9CMwokRB4C5CkqW4hI?authuser=0&hl=en&rclk=1
Auto body repair shop bronx ny,I&S Auto body,4.2,6,,Auto body shop,4410 Park Ave,40.8526426,-73.8957395,Open,Closes 6 PM,,2024-03-04 14:59:36,(917) 337-2491,,https://www.google.com/maps/place/I%26S+Auto+body/data=!4m7!3m6!1s0x89c2f590d3b25735:0xfe0618a515466434!8m2!3d40.8526426!4d-73.8957395!16s%2Fg%2F11srr74myd!19sChIJNVey05D1wokRNGRGFaUYBv4?authuser=0&hl=en&rclk=1
Auto body repair shop bronx ny,LIZA BROWN'S AUTOBODY CORP,3.3,49,,Auto body shop,191B Bruckner Blvd,40.8040457,-73.9142028,Open,Closes 5 PM,,2024-03-04 14:59:37,(718) 292-8288," 
""Great repair on vehicles excellent work done here.""",https://www.google.com/maps/place/LIZA+BROWN%27S+AUTOBODY+CORP/data=!4m7!3m6!1s0x89c2f4f0dabf4b5b:0x108bfe0487b67b7d!8m2!3d40.8040457!4d-73.9142028!16s%2Fg%2F11c7lw5wgk!19sChIJW0u_2vD0wokRfXu2hwT-ixA?authuser=0&hl=en&rclk=1
Auto body repair shop bronx ny,Mato Auto Body,4.5,10,,Auto body shop,1504 Inwood Ave,40.8429322,-73.91705,Open,Closes 6 PM,,2024-03-04 14:59:38,(718) 731-8110,,https://www.google.com/maps/place/Mato+Auto+Body/data=!4m7!3m6!1s0x89c2f43e6bcef1c1:0x713890d9c063a10a!8m2!3d40.8429322!4d-73.91705!16s%2Fg%2F1tkvbpqg!19sChIJwfHOaz70wokRCqFjwNmQOHE?authuser=0&hl=en&rclk=1
Auto body repair shop bronx ny,Bronx County Collision Inc,4.2,86,,Auto repair shop,1460 E 222nd St,40.876652,-73.837984,Open,Closes 5 PM,,2024-03-04 14:59:39,(718) 994-6700," 
""I recommend this place for any auto repairs.""",https://www.google.com/maps/place/Bronx+County+Collision+Inc/data=!4m7!3m6!1s0x89c28ccb9a82e5f1:0xef8bef07a48e184f!8m2!3d40.876652!4d-73.837984!16s%2Fg%2F1tdr93c4!19sChIJ8eWCmsuMwokRTxiOpAfvi-8?authuser=0&hl=en&rclk=1
Auto body repair shop bronx ny,Alijah Autobody Inc.,4.5,8,,Auto body shop,4515 Byron Ave,40.899826,-73.851342,Open,Closes 5 PM,https://alijahautobodyinc.org/,2024-03-04 14:59:41,(718) 798-4181," 
""Best BMW mechanic and body shop in the business, very reliable, ...""",https://www.google.com/maps/place/Alijah+Autobody+Inc./data=!4m7!3m6!1s0x89c2f31806bfb9d5:0x16d6b49072af7269!8m2!3d40.899826!4d-73.851342!16s%2Fg%2F11fn4b7nl0!19sChIJ1bm_BhjzwokRaXKvcpC01hY?authuser=0&hl=en&rclk=1
Auto body repair shop bronx ny,Carter Auto Collision,3.0,2,,Auto body shop,1683 Carter Ave,40.843792,-73.9041684,Open,Closes 6 PM,http://cartercarcollision.com/?utm_source=gmb&utm_medium=referral,2024-03-04 14:59:42,(914) 349-1494,,https://www.google.com/maps/place/Carter+Auto+Collision/data=!4m7!3m6!1s0x89c2f55edc4e11e1:0x2c15372ea6983a00!8m2!3d40.843792!4d-73.9041684!16s%2Fg%2F11ry8k60qv!19sChIJ4RFO3F71wokRADqYpi43FSw?authuser=0&hl=en&rclk=1
Auto body repair shop bronx ny,United Auto Body NY Corp,4.9,8,,Auto body shop,2255 Givan Ave # 4,40.8806748,-73.8272489,Open,Closes 5:30 PM,https://united-auto-body-ny-corp.business.site/,2024-03-04 14:59:43,(347) 899-8082," 
""If you do, and it needs repair, trust your car to Gavin @ United Auto.""",https://www.google.com/maps/place/United+Auto+Body+NY+Corp/data=!4m7!3m6!1s0x89c28da6b1f1cb6f:0xafaa101134da7f62!8m2!3d40.8806748!4d-73.8272489!16s%2Fg%2F11fjs473c1!19sChIJb8vxsaaNwokRYn_aNBEQqq8?authuser=0&hl=en&rclk=1
Auto body repair shop bronx ny,First Class Collision Specialist Inc,4.5,42,,Auto body shop,3008 Lurting Ave,40.8702198,-73.8563592,Open,Closes 6 PM,https://first-class-collision-specialist-inc.negocio.site/,2024-03-04 14:59:44,(718) 652-9219," 
""This is my main shop for body repairs.""",https://www.google.com/maps/place/First+Class+Collision+Specialist+Inc/data=!4m7!3m6!1s0x89c2f35d829470f9:0x2fb59d67494d3d12!8m2!3d40.8702198!4d-73.8563592!16s%2Fg%2F11dymg58s4!19sChIJ-XCUgl3zwokREj1NSWedtS8?authuser=0&hl=en&rclk=1
Auto body repair shop bronx ny,Collision Kings,5.0,6,,Auto body shop,684-A E 137th St,40.8044998,-73.9146261,Open,Closes 6 PM,,2024-03-04 14:59:46,(718) 618-0909," 
""... exactly what I needed Paint matches 100% to the rest of the car.""",https://www.google.com/maps/place/Collision+Kings/data=!4m7!3m6!1s0x89c2f59ad0459bd1:0x374ddadecd11f80d!8m2!3d40.8044998!4d-73.9146261!16s%2Fg%2F11t4ghzvzy!19sChIJ0ZtF0Jr1wokRDfgRzd7aTTc?authuser=0&hl=en&rclk=1
Auto body repair shop bronx ny,Xcellence Body Works,4.3,22,,Auto body shop,4170 Park Ave,40.8464736,-73.8995302,Open,Closes 6 PM,https://xcellence-auto-bodyworks.business.site/,2024-03-04 14:59:47,(347) 577-6923,,https://www.google.com/maps/place/Xcellence+Body+Works/data=!4m7!3m6!1s0x89c2f4660c21ee9d:0xffc09c9143ade515!8m2!3d40.8464736!4d-73.8995302!16s%2Fg%2F11f1z8lf1z!19sChIJne4hDGb0wokRFeWtQ5GcwP8?authuser=0&hl=en&rclk=1
Auto body repair shop bronx ny,"Orsap Towing , Auto Repair and body shop",4.3,57,,Auto body shop,1680 Jerome Ave,40.8460993,-73.9132812,Open 24 hours,,http://24nyctowing.com/,2024-03-04 14:59:48,(718) 731-0717,,"https://www.google.com/maps/place/Orsap+Towing+,+Auto+Repair+and+body+shop/data=!4m7!3m6!1s0x89c2f415286fb8db:0x94e77252e3facffc!8m2!3d40.8460993!4d-73.9132812!16s%2Fg%2F11g6wh2_d1!19sChIJ27hvKBX0wokR_M_641Jy55Q?authuser=0&hl=en&rclk=1"
Auto body repair shop bronx ny,EXECUTIVE EXPERT COLLISION INC,3.7,25,,Auto body shop,4213 Peters Pl,40.8960405,-73.8640972,Open,Closes 5 PM,https://executivecollision.com/,2024-03-04 14:59:49,(718) 325-8900," 
""... of the only body shops I've ever been to where the staff was polite ...""
 
BOOK ONLINE",https://www.google.com/maps/place/EXECUTIVE+EXPERT+COLLISION+INC/data=!4m7!3m6!1s0x89c2f33834dc2f7b:0x37bc82cfebbac8b1!8m2!3d40.8960405!4d-73.8640972!16s%2Fg%2F11p0y9ssz3!19sChIJey_cNDjzwokRsci668-CvDc?authuser=0&hl=en&rclk=1
Auto body repair shop bronx ny,L&J Auto Service inc,3.7,41,,Auto body shop,2180 Webster Ave,40.8544514,-73.8963454,Open,Closes 7 PM,,2024-03-04 14:59:50,(718) 294-4822," 
""I took my mdx for bumpers repair came out new ...""",https://www.google.com/maps/place/L%26J+Auto+Service+inc/data=!4m7!3m6!1s0x89c2f4685ce5fb67:0xce673a41a90d9962!8m2!3d40.8544514!4d-73.8963454!16s%2Fg%2F11gfgnqjgm!19sChIJZ_vlXGj0wokRYpkNqUE6Z84?authuser=0&hl=en&rclk=1
